state,County,County FIPS,Latitude,Longitude,Total Properties,FEMA Properties at Risk 2020 (total),FEMA Properties at Risk 2020 (pct),FS Properties at Risk 2020 (total),FS Properties at Risk 2020 (pct),FS Properties at Risk 2035 (total),FS Properties at Risk 2035 (pct),FS Properties at Risk 2050 (total),FS Properties at Risk 2050 (pct),"FS-FEMA Difference, 2020 (total)","FS-FEMA Difference, 2020 (pct)","Avg Risk Score, (2+ Only)","Avg Risk Score, (All Props)","Avg Risk Score, (FSF 1-100 Risk)","Avg Risk Score, (FEMA SFHA Risk)","Avg Risk Score, (No FEMA SFHA Risk)"
ky,Adair,21001,37.1041534562996,-85.280649769072,14058,341,2.4,1043,7.4,1062,7.6,1080,7.7,702,205.9,7.62166531932094,1.5826575615308,8.37104506232023,5.55131964809384,
ky,Allen,21003,36.7513165543721,-86.1904186708494,14158,297,2.1,984,7,992,7,1001,7.1,687,231.3,7.73982300884956,1.5379290860291,8.38211382113821,5.95286195286195,
ky,Anderson,21005,38.0039134108987,-84.9910045766175,12302,246,2,1001,8.1,1013,8.2,1025,8.3,755,306.9,6.96261682242991,1.57047634530971,7.56843156843157,6.5609756097561,
ky,Ballard,21007,37.0584319295026,-88.9993411295802,6462,740,11.5,568,8.8,574,8.9,581,9,-172,-23.2,7.48228043143297,1.65103683070257,8.07218309859155,4.52432432432433,
ky,Barren,21009,36.9655811760135,-85.9336633199889,23787,470,2,2305,9.7,2346,9.9,2387,10,1835,390.4,7.12171753016324,1.7252280657502,7.8824295010846,4.72340425531915,
ky,Bath,21011,38.1449736905906,-83.7426672199874,6816,423,6.2,917,13.5,924,13.6,930,13.6,494,116.8,7.89382239382239,2.04782863849765,8.46128680479826,5.29787234042553,
ky,Boone,21015,38.9698644800228,-84.7278481207103,51683,501,1,3529,6.8,3620,7,3710,7.2,3028,604.4,6.72281986724651,1.48377609658882,7.42108245962029,6.78443113772455,
ky,Bourbon,21017,38.2067299514105,-84.2171399549163,9114,465,5.1,852,9.3,855,9.4,858,9.4,387,83.2,7.18467583497053,1.69080535439982,7.90492957746479,6.43655913978495,
ky,Boyd,21019,38.3595724684552,-82.6877258113169,26320,1593,6.1,4934,18.7,5016,19.1,5099,19.4,3341,209.7,6.55107565180225,2.48035714285714,7.87271990271585,6.69805398618958,
ky,Boyle,21021,37.6243602285061,-84.8668203813824,12680,335,2.6,1393,11,1422,11.2,1452,11.5,1058,315.8,7.42805320435308,1.8384858044164,8.12203876525485,7.11641791044776,
ky,Bracken,21023,38.6888129740231,-84.0901906654822,5900,555,9.4,953,16.2,956,16.2,959,16.3,398,71.7,7.70008873114463,2.27983050847458,8.37565582371459,8.48468468468469,
ky,Breathitt,21025,37.5216171411451,-83.3240853122168,8492,1006,11.8,3552,41.8,3572,42.1,3592,42.3,2546,253.1,8.59928168291432,4.48822421102214,9.06728603603604,6.71968190854871,
ky,Breckinridge,21027,37.7732676848037,-86.4292775360844,21463,926,4.3,1309,6.1,1324,6.2,1338,6.2,383,41.4,6.98570611778159,1.48776965009551,8.11841100076394,4.3963282937365,
ky,Bullitt,21029,37.970075770777,-85.6958570320404,33387,2932,8.8,1786,5.3,1818,5.4,1849,5.5,-1146,-39.1,6.63702127659574,1.39677119837062,7.67245240761478,2.1756480218281,
ky,Butler,21031,37.2072808134494,-86.6817555613694,8622,576,6.7,937,10.9,942,10.9,948,11,361,62.7,7.58916900093371,1.81848758988634,8.15795090715048,5.83680555555556,
ky,Caldwell,21033,37.1453332323422,-87.8679057735201,9377,338,3.6,832,8.9,842,9,852,9.1,494,146.2,6.83950617283951,1.65575343926629,7.73557692307692,4.02662721893491,
ky,Calloway,21035,36.621101281708,-88.2722011189508,37439,938,2.5,3526,9.4,3546,9.5,3565,9.5,2588,275.9,7.31292358027577,1.72152033975266,8.12489355662788,4.87313432835821,
ky,Campbell,21037,38.9464767902741,-84.3796958268202,36667,1565,4.3,3461,9.4,3534,9.6,3607,9.8,1896,121.2,6.32351598173516,1.63591240079636,7.03062698642011,6.74952076677316,
ky,Carlisle,21039,36.8532163812371,-88.9710587965387,3867,405,10.5,446,11.5,448,11.6,450,11.6,41,10.1,7.49284253578732,1.82104990949056,7.88116591928251,5.00740740740741,
ky,Carroll,21041,38.667858412217,-85.1235900319639,5248,715,13.6,1350,25.7,1358,25.9,1366,26,635,88.8,5.94875,3.26314786585366,7.84296296296296,7.98601398601399,
ky,Carter,21043,38.3181728397692,-83.0495338249241,14528,1180,8.1,4025,27.7,4064,28,4104,28.2,2845,241.1,8.26779437609842,3.27718887665198,8.8616149068323,7.28983050847458,
ky,Casey,21045,37.3222824528679,-84.9283681556529,10689,627,5.9,1196,11.2,1216,11.4,1235,11.6,569,90.7,7.69686162624822,1.87837964262326,8.41387959866221,5.39872408293461,
ky,Christian,21047,36.894180736865,-87.4903805649455,27061,1525,5.6,1890,7,1930,7.1,1970,7.3,365,23.9,6.01556156968877,1.5478733232327,7.26507936507937,4.9455737704918,
ky,Clark,21049,37.9708518678782,-84.147399411084,16809,571,3.4,1765,10.5,1787,10.6,1809,10.8,1194,209.1,6.9615938550168,1.73877089654352,7.57790368271955,6.53590192644483,
ky,Crittenden,21055,37.352715267187,-88.0972226542664,8300,517,6.2,722,8.7,727,8.8,732,8.8,205,39.7,7.30089485458613,1.67867469879518,8.19252077562327,4.66344294003869,
ky,Daviess,21059,37.7317725085122,-87.0872269247498,45063,6058,13.4,2867,6.4,3012,6.7,3158,7,-3191,-52.7,5.25595463137996,1.4996116547944,6.71712591559121,2.33806536810829,
ky,Edmonson,21061,37.2088402114006,-86.2386201476051,11527,615,5.3,821,7.1,828,7.2,835,7.2,206,33.5,7.80167890870934,1.56233191637026,8.48721071863581,4.48780487804878,
ky,Elliott,21063,38.1178916800583,-83.0976163427613,3981,124,3.1,1022,25.7,1030,25.9,1039,26.1,898,724.2,8.77910174152154,3.13187641296157,9.12133072407045,7.74193548387097,
ky,Fayette,21067,38.0423302647804,-84.4587221939547,111745,1187,1.1,5903,5.3,6116,5.5,6329,5.7,4716,397.3,5.60190388806056,1.35906751979954,6.54260545485346,4.68913226621736,
ky,Fleming,21069,38.3701068123137,-83.6966440810451,8647,390,4.5,1115,12.9,1128,13,1141,13.2,725,185.9,8.0529695024077,2.01630623337574,8.5695067264574,6.32564102564103,
ky,Floyd,21071,37.5571085193088,-82.7457041307893,20847,4267,20.5,10762,51.6,10806,51.8,10851,52.1,6495,152.2,8.66267225883763,5.29428694776227,9.0855788886824,7.17881415514413,
ky,Franklin,21073,38.2391477413183,-84.8770681762121,22080,978,4.4,2140,9.7,2188,9.9,2237,10.1,1162,118.8,5.93440769013288,1.79044384057971,7.36728971962617,5.51738241308794,
ky,Fulton,21075,36.5540721405358,-89.1875965864151,4978,607,12.2,438,8.8,444,8.9,449,9,-169,-27.8,6.62545454545455,1.62153475291282,7.46330275229358,3.6326194398682,
ky,Garrard,21079,37.6395779017729,-84.5376342282727,9778,154,1.6,998,10.2,1008,10.3,1017,10.4,844,548.1,8.29508196721312,1.81918592759255,8.75751503006012,7.83116883116883,
ky,Grant,21081,38.6488155619095,-84.6246133807337,11127,129,1.2,373,3.4,376,3.4,380,3.4,244,189.1,7.94761904761905,1.26224498966478,8.5254691689008,5.78294573643411,
ky,Graves,21083,36.7231382004006,-88.6512057693961,29047,1435,4.9,2459,8.5,2474,8.5,2490,8.6,1024,71.4,7.26602009005889,1.62278376424416,7.93452623017487,4.91498257839721,
ky,Green,21087,37.2641094200313,-85.5531056834897,8649,247,2.9,613,7.1,624,7.2,635,7.3,366,148.2,7.56361149110807,1.55474621343508,8.3115823817292,5.99595141700405,
ky,Greenup,21089,38.5456646933469,-82.9222922451857,22894,3592,15.7,7862,34.3,7931,34.6,8000,34.9,4270,118.9,7.0485120260905,3.59229492443435,7.81035359959298,7.22104677060134,
ky,Hancock,21091,37.84150872994,-86.7779252073323,4668,564,12.1,758,16.2,769,16.5,780,16.7,194,34.4,5.59335443037975,2.24378748928877,7.08179419525066,5.10106382978723,
ky,Hardin,21093,37.6979246066724,-85.963371902313,45061,1371,3,3063,6.8,3156,7,3248,7.2,1692,123.4,6.28989483310471,1.51348172477309,7.33365981064316,4.71043034281546,
ky,Harlan,21095,36.8569745004231,-83.2179510399878,17853,4151,23.3,8075,45.2,8156,45.7,8238,46.1,3924,94.5,8.31227495908347,4.75382288690976,8.9528173374613,7.88677427125994,
ky,Harrison,21097,38.4418035087393,-84.3313958341479,9002,556,6.2,1034,11.5,1039,11.5,1044,11.6,478,86,7.51089588377724,1.89613419240169,8.28433268858801,6.73381294964029,
ky,Hart,21099,37.2999267481275,-85.8847094090281,12001,430,3.6,1280,10.7,1300,10.8,1320,11,850,197.7,6.85774058577406,1.81659861678193,7.903125,5.07209302325581,
ky,Henderson,21101,37.7958423575857,-87.57315164241,20211,2092,10.4,1729,8.6,1755,8.7,1781,8.8,-363,-17.4,6.15247776365947,1.60189995546979,7.13880855986119,4.04015296367113,
ky,Hickman,21105,36.678170497885,-88.9762156953965,4388,484,11,519,11.8,522,11.9,525,12,35,7.2,7.54385964912281,1.85004557885141,7.94412331406551,4.43595041322314,
ky,Hopkins,21107,37.3088201364937,-87.5408421369562,28420,1763,6.2,2398,8.4,2444,8.6,2489,8.8,635,36,6.5077519379845,1.6,7.35154295246038,4.31593874078276,
ky,Jefferson,21111,38.1871910000068,-85.6591577085703,286094,10295,3.6,20846,7.3,21738,7.6,22630,7.9,10551,102.5,4.80203623209545,1.45554957461534,5.88515782404298,3.873919378339,
ky,Jessamine,21113,37.8720513216911,-84.5809372506242,19862,488,2.5,1518,7.6,1544,7.8,1569,7.9,1030,211.1,7.02131147540984,1.55477796797906,7.72397891963109,6.92622950819672,
ky,Johnson,21115,37.8466393631206,-82.8315397829094,11305,1989,17.6,5854,51.8,5883,52,5912,52.3,3865,194.3,8.80169383189517,5.318708536046,9.15203279808678,7.98642533936652,
ky,Kenton,21117,38.9334528591513,-84.5333168443975,62170,796,1.3,3210,5.2,3304,5.3,3399,5.5,2414,303.3,5.78112575852689,1.36752452951584,6.8588785046729,6.67587939698493,
ky,Knox,21121,36.8906660593345,-83.8540452841103,15408,1330,8.6,3959,25.7,3994,25.9,4028,26.1,2629,197.7,7.32651570489408,3.24844236760125,8.70699671634251,6.40300751879699,
ky,Laurel,21125,37.1106705520221,-84.117800321674,27151,487,1.8,2610,9.6,2646,9.7,2682,9.9,2123,435.9,7.32257043368155,1.73562668041693,8.09578544061303,5.85626283367557,
ky,Lawrence,21127,38.0678786221529,-82.7347546553658,9736,934,9.6,3354,34.4,3378,34.7,3401,34.9,2420,259.1,7.56877595895431,3.76150369761709,8.33422778771616,7.42291220556745,
ky,Leslie,21131,37.0940663139873,-83.3811399670228,8859,607,6.9,3673,41.5,3686,41.6,3700,41.8,3066,505.1,9.06280566280566,4.5358392595101,9.3746256466104,8.57990115321252,
ky,Letcher,21133,37.1211921399568,-82.8552822542521,12567,1460,11.6,6381,50.8,6404,51,6426,51.1,4921,337.1,9.22622803064444,5.35760324659823,9.46481742673562,8.68835616438356,
ky,Lewis,21135,38.5315416286525,-83.3780560683245,6944,671,9.7,1527,22,1541,22.2,1555,22.4,856,127.6,8.07043815862452,2.83582949308756,8.88867059593975,4.28464977645306,
ky,Lincoln,21137,37.4553667773083,-84.6608453632842,15219,240,1.6,1293,8.5,1314,8.6,1336,8.8,1053,438.8,7.62967914438503,1.65168539325843,8.28847641144625,6.52916666666667,
ky,Logan,21141,36.8596987835753,-86.8789382374598,18650,916,4.9,1881,10.1,1904,10.2,1927,10.3,965,105.3,7.28408091468778,1.76621983914209,8.09409888357257,5.9061135371179,
ky,Lyon,21143,37.0191301369859,-88.0832815034758,10509,303,2.9,1987,18.9,1996,19,2006,19.1,1684,555.8,7.32270573028867,2.39642211437815,7.9396074484147,7.28052805280528,
ky,McCracken,21145,37.0540793200534,-88.7127192626738,34617,1450,4.2,2181,6.3,2255,6.5,2329,6.7,731,50.4,5.29911412193851,1.47664442326025,6.98807886290692,3.66896551724138,
ky,McCreary,21147,36.73714155779,-84.4841745476033,10292,92,0.9,611,5.9,622,6,634,6.2,519,564.1,7.65573770491803,1.4733773804897,8.39443535188216,6.8804347826087,
ky,McLean,21149,37.5291899513636,-87.2636042457455,6652,1368,20.6,899,13.5,910,13.7,921,13.8,-469,-34.3,5.90965732087227,1.94768490679495,6.81757508342603,4.125,
ky,Madison,21151,37.7201835061564,-84.2779980050311,35123,836,2.4,3004,8.6,3050,8.7,3095,8.8,2168,259.3,7.02547425474255,1.63303248583549,7.80892143808256,6.15430622009569,
ky,Magoffin,21153,37.706474148478,-83.0649145408532,7723,1148,14.9,3281,42.5,3309,42.8,3337,43.2,2133,185.8,8.24644295302013,4.49514437394795,8.86772325510515,6.52264808362369,
ky,Marion,21155,37.5525344714501,-85.2696313760736,11030,372,3.4,1116,10.1,1134,10.3,1152,10.4,744,200,7.65457413249211,1.76500453309157,8.20250896057348,6.41129032258065,
ky,Marshall,21157,36.88344659339,-88.3293805303228,25833,1355,5.2,1910,7.4,1944,7.5,1978,7.7,555,41,6.44538123167155,1.57503967793133,7.69685863874346,4.36974169741697,
ky,Martin,21159,37.8015772072426,-82.5132925162419,6632,1386,20.9,2959,44.6,2971,44.8,2983,45,1573,113.5,8.72457891453525,4.73416767189385,9.13720851639067,6.97763347763348,
ky,Mason,21161,38.595172990662,-83.8242451540988,10891,299,2.7,1436,13.2,1459,13.4,1482,13.6,1137,380.3,6.85017421602788,1.92498393168671,7.52506963788301,7.18060200668896,
ky,Meade,21163,37.9698391714851,-86.2171786522754,14481,198,1.4,947,6.5,964,6.7,981,6.8,749,378.3,6.71014492753623,1.48974518334369,7.69693769799366,4.84343434343434,
ky,Mercer,21167,37.8110307875744,-84.8744366870746,11675,686,5.9,1468,12.6,1488,12.7,1508,12.9,782,114,7.24298540965208,1.95289079229122,8.0374659400545,6.68804664723032,
ky,Monroe,21171,36.7121802817668,-85.7165195943276,8458,151,1.8,819,9.7,827,9.8,835,9.9,668,442.4,7.73519913885899,1.73977299598014,8.30647130647131,6.35761589403974,
ky,Montgomery,21173,38.0335228010049,-83.9130889781776,12463,315,2.5,1312,10.5,1326,10.6,1340,10.8,997,316.5,7.44779116465864,1.7729278664848,7.97637195121951,6.74285714285714,
ky,Morgan,21175,37.9222809094773,-83.2588931274105,7922,570,7.2,2394,30.2,2418,30.5,2443,30.8,1824,320,8.40149812734082,3.49457207775814,8.95071010860485,6.11228070175439,
ky,Muhlenberg,21177,37.2157922676301,-87.142041663883,18544,664,3.6,1486,8,1501,8.1,1516,8.2,822,123.8,6.83398112159911,1.56659836065574,7.5699865410498,4.12650602409639,
ky,Nelson,21179,37.8051312658265,-85.4659885889338,24629,682,2.8,1744,7.1,1774,7.2,1804,7.3,1062,155.7,7.27971698113208,1.54054163790653,8.09116972477064,5.56304985337243,
ky,Nicholas,21181,38.3355978151231,-84.0153305026085,4883,257,5.3,815,16.7,826,16.9,838,17.2,558,217.1,7.88888888888889,2.35859103010444,8.64294478527607,7.37354085603113,
ky,Ohio,21183,37.4781916844347,-86.8488901957811,15523,1237,8,1698,10.9,1720,11.1,1743,11.2,461,37.3,7.23076923076923,1.81401790890936,7.9263839811543,4.94098625707357,
ky,Owsley,21189,37.4192050175713,-83.6831118883623,3501,228,6.5,1306,37.3,1319,37.7,1332,38,1078,472.8,8.65936395759717,4.09568694658669,9.05819295558959,7.69736842105263,
ky,Pendleton,21191,38.6956276542575,-84.3602721801961,7878,943,12,1049,13.3,1054,13.4,1060,13.5,106,11.2,7.27616279069768,2.0962173140391,8.30981887511916,7.067868504772,
ky,Perry,21193,37.2442933216662,-83.2214816047101,14838,1768,11.9,5824,39.3,5860,39.5,5896,39.7,4056,229.4,8.61197548326261,4.26425394257986,9.06473214285714,7.42760180995475,
ky,Powell,21197,37.8311453219892,-83.8237745887591,5310,881,16.6,1181,22.2,1192,22.4,1203,22.7,300,34.1,7.65398683247988,2.71299435028249,8.29127857747672,5.91486946651532,
ky,Pulaski,21199,37.1039269004386,-84.5771763008837,46147,306,0.7,3651,7.9,3722,8.1,3794,8.2,3345,1093.1,7.03619510041933,1.59267124623486,7.87893727745823,6.82679738562092,
ky,Robertson,21201,38.5188144389235,-84.0520241975481,1559,48,3.1,119,7.6,120,7.7,122,7.8,71,147.9,7.86013986013986,1.62924951892239,8.63865546218487,7.125,
ky,Rowan,21205,38.1962558629148,-83.4210754075126,12071,1228,10.2,2838,23.5,2864,23.7,2889,23.9,1610,131.1,8.08151835718731,2.88551072819153,8.67582804792107,5.91042345276873,
ky,Russell,21207,36.9910343136917,-85.0586875543974,20540,135,0.7,1135,5.5,1154,5.6,1172,5.7,1000,740.7,7.25450612833454,1.42234664070107,8.03348017621145,7.51851851851852,
ky,Scott,21209,38.2915473182902,-84.5839339017637,22982,431,1.9,2124,9.2,2152,9.4,2181,9.5,1693,392.8,7.14064362336114,1.67252632494996,7.76789077212806,6.76102088167053,
ky,Shelby,21211,38.2154382468742,-85.1947770108754,20758,187,0.9,1336,6.4,1354,6.5,1371,6.6,1149,614.4,6.99195046439629,1.46618171307448,7.68338323353293,6.61497326203209,
ky,Simpson,21213,36.7419423400183,-86.5823205338336,9817,214,2.2,572,5.8,586,6,600,6.1,358,167.3,6.44162436548223,1.43679331771417,7.48601398601399,4.67757009345794,
ky,Spencer,21215,38.0325101364539,-85.3278488200671,9298,243,2.6,670,7.2,676,7.3,682,7.3,427,175.7,6.86412512218964,1.64519251451925,8.36119402985075,6.18930041152263,
ky,Taylor,21217,37.3664545074983,-85.3278346723506,13554,232,1.7,845,6.2,861,6.4,877,6.5,613,264.2,7.32248520710059,1.47299690128375,8.07573964497041,6.53448275862069,
ky,Todd,21219,36.8355562286041,-87.1791532932562,8272,283,3.4,667,8.1,674,8.1,682,8.2,384,135.7,6.53488372093023,1.60420696324952,7.65667166416792,5.36749116607774,
ky,Trigg,21221,36.8063197395389,-87.8733713771836,18772,498,2.7,2681,14.3,2693,14.3,2705,14.4,2183,438.4,6.97691373025516,2.04815682932026,7.76314807907497,6.42369477911647,
ky,Trimble,21223,38.6130327459997,-85.337568109888,5594,224,4,572,10.2,576,10.3,580,10.4,348,155.4,7.96060606060606,1.82123703968538,8.59615384615385,8.02678571428571,
ky,Union,21225,37.658448002133,-87.9453835495198,8273,686,8.3,739,8.9,750,9.1,762,9.2,53,7.7,5.85623293903549,1.64511060074943,6.98782138024357,4.03790087463557,
ky,Warren,21227,36.9935767724328,-86.423799348144,47820,604,1.3,3738,7.8,3866,8.1,3994,8.4,3134,518.9,6.16374163198842,1.59682141363446,7.36409844836811,4.71688741721854,
ky,Washington,21229,37.7533785637527,-85.1747465425484,6970,188,2.7,549,7.9,556,8,563,8.1,361,192,7.67783094098884,1.60071736011478,8.24590163934426,7.09574468085106,
ky,Wayne,21231,36.8012652484955,-84.8286312017088,15064,220,1.5,1240,8.2,1260,8.4,1280,8.5,1020,463.6,7.35029354207436,1.64624269782262,8.24274193548387,7.3,
ky,Webster,21233,37.5184174772859,-87.6831570957748,10861,1402,12.9,978,9,987,9.1,996,9.2,-424,-30.2,6.90448979591837,1.66596077709235,7.77914110429448,3.35592011412268,
ky,Whitley,21235,36.7580732622392,-84.1451777270182,16579,894,5.4,2543,15.3,2580,15.6,2618,15.8,1649,184.5,7.18250150330728,2.24030399903492,8.21038143924499,5.81879194630873,
ky,Woodford,21239,38.0423908285345,-84.7436031469323,11300,401,3.5,968,8.6,976,8.6,985,8.7,567,141.4,6.89614476789929,1.66318584070796,7.98450413223141,7.83042394014963,
tn,Anderson,47001,36.1184426299668,-84.1984630028629,35780,665,1.9,5496,15.4,5548,15.5,5599,15.6,4831,726.5,7.31805070593593,2.16313583007267,8.06550218340611,6.34436090225564,
tn,Bedford,47003,35.5137978761387,-86.4588856978032,21943,511,2.3,2109,9.6,2139,9.7,2169,9.9,1598,312.7,6.97192307692308,1.70760607027298,7.78852536747274,4.53033268101761,
tn,Benton,47005,36.0697841980842,-88.0682731678518,16237,514,3.2,2126,13.1,2141,13.2,2156,13.3,1612,313.6,7.35932601880878,1.99950729814621,8.10018814675447,5.2704280155642,
tn,Bledsoe,47007,35.5964202026409,-85.2051550951581,10655,104,1,1069,10,1084,10.2,1099,10.3,965,927.9,7.56463124504362,1.776912247771,8.28811973807297,6.08653846153846,
tn,Blount,47009,35.687203795178,-83.9255394314583,63148,1609,2.5,7752,12.3,7857,12.4,7962,12.6,6143,381.8,6.87959467514405,1.93722683220371,7.79295665634675,7.0627719080174,
tn,Bradley,47011,35.1541102940392,-84.859602734986,52388,1821,3.5,5138,9.8,5232,10,5327,10.2,3317,182.2,6.8073732718894,1.7216538138505,7.67555469054107,5.09006040637013,
tn,Campbell,47013,36.4035128143226,-84.1493845804299,27284,2483,9.1,4066,14.9,4118,15.1,4170,15.3,1583,63.8,7.66694095865048,2.18780237501833,8.44343334972946,4.48328634716069,
tn,Cannon,47015,35.8086768522227,-86.0617405926759,7762,383,4.9,1226,15.8,1237,15.9,1248,16.1,843,220.1,7.95766423357664,2.22803401185262,8.45595432300163,6.37597911227154,
tn,Carroll,47017,35.9731784168219,-88.4502607461239,18974,455,2.4,1163,6.1,1177,6.2,1191,6.3,708,155.6,7.11063218390805,1.44829767049647,7.82201203783319,3.54725274725275,
tn,Carter,47019,36.2927208492506,-82.1274783435768,31476,2097,6.7,8441,26.8,8554,27.2,8667,27.5,6344,302.5,7.81265926001427,3.12349091371204,8.47423291079256,7.47019551740582,
tn,Cheatham,47021,36.2611569307189,-87.0867695023053,20395,960,4.7,2154,10.6,2176,10.7,2197,10.8,1194,124.4,7.44114285714286,1.82902672223584,8.26090993500464,7.14479166666667,
tn,Chester,47023,35.4217523264907,-88.6134615498923,9863,187,1.9,685,6.9,693,7,701,7.1,498,266.3,7.42118537200504,1.51627293926797,8.01459854014599,3.79144385026738,
tn,Claiborne,47025,36.4858546340807,-83.6604159042605,22171,411,1.9,2922,13.2,2962,13.4,3002,13.5,2511,610.9,7.98740111338998,2.07563934869875,8.73340177960301,7.07542579075426,
tn,Clay,47027,36.5511571139457,-85.5438591889319,6583,89,1.4,1241,18.9,1248,19,1254,19,1152,1294.4,8.0203081232493,2.52286191705909,8.651893634166,7.92134831460674,
tn,Cocke,47029,35.9254374122907,-83.1211830140435,24692,1392,5.6,5219,21.1,5274,21.4,5329,21.6,3827,274.9,8.03388401888065,2.68981856471732,8.63000574822763,7.51508620689655,
tn,Coffee,47031,35.4906159935334,-86.0747626426243,30409,747,2.5,2055,6.8,2100,6.9,2146,7.1,1308,175.1,6.33765765765766,1.48709263704824,7.38783454987835,4.43641231593039,
tn,Crockett,47033,35.8135384797828,-89.1395281511335,9820,457,4.7,711,7.2,722,7.4,734,7.5,254,55.6,7.01210653753027,1.50570264765784,7.56118143459916,4.35010940919037,
tn,Cumberland,47035,35.9503879057537,-84.998351581917,64831,70,0.1,4522,7,4584,7.1,4645,7.2,4452,6360,7.55261180007516,1.53790624855393,8.24635117204777,7.47142857142857,
tn,Davidson,47037,36.1695295675188,-86.7848240969725,258993,7451,2.9,25788,10,26240,10.1,26692,10.3,18337,246.1,6.11229580636885,1.69238936959686,6.99678144873585,6.15326801771574,
tn,Decatur,47039,35.6030197589655,-88.1087727833496,13499,2330,17.3,3018,22.4,3030,22.4,3042,22.5,688,29.5,8.6253804017042,2.8562115712275,9.06626905235255,8.21888412017167,
tn,DeKalb,47041,35.9798606620723,-85.8327516540286,17307,285,1.6,1302,7.5,1322,7.6,1342,7.8,1017,356.8,7.46,1.5972149997111,8.31720430107527,5.9859649122807,
tn,Dickson,47043,36.1490481180988,-87.3566550686788,25846,242,0.9,2328,9,2362,9.1,2395,9.3,2086,862,7.79393939393939,1.6939565116459,8.33591065292096,6.80165289256198,
tn,Dyer,47045,36.0590578021018,-89.4137659480733,21246,2394,11.3,1656,7.8,1674,7.9,1692,8,-738,-30.8,5.94077757685353,1.51440271109856,6.83695652173913,2.35797827903091,
tn,Fayette,47047,35.1970807468736,-89.4143720338851,23535,607,2.6,1521,6.5,1540,6.5,1559,6.6,914,150.6,7.10941752857921,1.47686424474187,7.87310979618672,3.9835255354201,
tn,Fentress,47049,36.3804933554119,-84.9324585219966,15497,47,0.3,866,5.6,882,5.7,898,5.8,819,1742.6,7.63761018609207,1.43731044718333,8.33256351039261,7.29787234042553,
tn,Franklin,47051,35.1549608161582,-86.0921752082279,24725,650,2.6,2130,8.6,2173,8.8,2216,9,1480,227.7,6.81176035502959,1.6355915065723,7.71220657276995,4.87846153846154,
tn,Gibson,47053,35.996611320159,-88.9326248036534,29977,2049,6.8,2123,7.1,2156,7.2,2189,7.3,74,3.6,6.61211009174312,1.51015778763719,7.48327837965144,3.71059053196681,
tn,Giles,47055,35.2021508952473,-87.0347773687561,17921,979,5.5,3072,17.1,3090,17.2,3108,17.3,2093,213.8,7.90120274914089,2.34473522682886,8.50651041666667,4.47497446373851,
tn,Grainger,47057,36.2762586669818,-83.5096204437789,14829,152,1,1944,13.1,1974,13.3,2003,13.5,1792,1178.9,7.77284263959391,2.07970867893992,8.64763374485597,8.10526315789474,
tn,Greene,47059,36.1753512461148,-82.8458266598853,41852,707,1.7,5155,12.3,5239,12.5,5323,12.7,4448,629.1,7.52041816399869,1.95378954410781,8.24655674102813,6.36633663366337,
tn,Grundy,47061,35.3883667039683,-85.7225823933351,11055,185,1.7,985,8.9,1002,9.1,1019,9.2,800,432.4,7.43422184006879,1.67688828584351,8.11979695431472,5.64864864864865,
tn,Hamblen,47063,36.2171519034248,-83.2666627175995,29906,380,1.3,2365,7.9,2456,8.2,2547,8.5,1985,522.4,6.73494363929147,1.59543235471143,7.66934460887949,6.11578947368421,
tn,Hamilton,47065,35.1808751378039,-85.1647572968621,157086,6450,4.1,37916,24.1,38312,24.4,38708,24.6,31466,487.8,6.56519969059154,2.74042244375692,7.36522839962021,6.51875968992248,
tn,Hancock,47067,36.5236457051239,-83.2218260273187,5884,442,7.5,1596,27.1,1610,27.4,1624,27.6,1154,261.1,8.34338358458962,3.23521414004079,8.89912280701755,6.95701357466063,
tn,Hardeman,47069,35.2068682633017,-88.9930848744768,19933,475,2.4,1617,8.1,1632,8.2,1646,8.3,1142,240.4,7.3887722980063,1.61089650328601,8.06122448979592,3.32210526315789,
tn,Hardin,47071,35.1986760952183,-88.1844851879183,26771,4883,18.2,5859,21.9,5882,22,5904,22.1,976,20,7.80936037441498,2.63042097792387,8.19730329407749,7.03358591030105,
tn,Hawkins,47073,36.4411634343478,-82.9446876669143,35551,497,1.4,4998,14.1,5090,14.3,5181,14.6,4501,905.6,7.57918326693227,2.11482096143568,8.35694277711085,7.5271629778672,
tn,Haywood,47075,35.5832218367937,-89.2838357978394,11160,951,8.5,870,7.8,878,7.9,887,7.9,-81,-8.5,6.690036900369,1.55268817204301,7.52873563218391,3.46687697160883,
tn,Henderson,47077,35.6542570601784,-88.3879869312928,17166,351,2,1122,6.5,1130,6.6,1138,6.6,771,219.7,7.45398298530549,1.4861353838984,8.05971479500891,4.03988603988604,
tn,Henry,47079,36.3318375801843,-88.3012135685838,25504,891,3.5,2628,10.3,2646,10.4,2665,10.4,1737,194.9,6.4328138782711,1.72447459222083,7.23401826484018,4.41077441077441,
tn,Hickman,47081,35.8032506791112,-87.4733082278125,18962,422,2.2,2322,12.2,2339,12.3,2356,12.4,1900,450.2,8.08915753683415,1.98961080054847,8.73600344530577,6.28909952606635,
tn,Houston,47083,36.2859716601056,-87.7170356288637,6060,388,6.4,1187,19.6,1195,19.7,1203,19.9,799,205.9,7.91635548917102,2.52821782178218,8.47683235046335,6.46649484536083,
tn,Humphreys,47085,36.0408188807704,-87.7756333582616,12535,781,6.2,2442,19.5,2466,19.7,2489,19.9,1661,212.7,7.36930455635492,2.48320702034304,8.12244062244062,5.41101152368758,
tn,Jackson,47087,36.3592115189141,-85.6731507890704,8770,252,2.9,2105,24,2112,24.1,2118,24.2,1853,735.3,8.32478632478633,2.95438996579247,8.8209026128266,8.70238095238095,
tn,Jefferson,47089,36.0509841884559,-83.4463116121374,32644,906,2.8,3041,9.3,3110,9.5,3178,9.7,2135,235.7,6.73696853230843,1.73161989952212,7.84117066754357,4.45364238410596,
tn,Johnson,47091,36.4549370869627,-81.8517719844525,13638,601,4.4,4519,33.1,4559,33.4,4599,33.7,3918,651.9,8.54601101815956,3.71176125531603,8.96081470002214,6.5873544093178,
tn,Knox,47093,35.993206380415,-83.9370903319685,193196,3363,1.7,20184,10.4,20491,10.6,20798,10.8,16821,500.2,6.60277370616755,1.77161535435516,7.51684502576298,6.46476360392507,
tn,Lake,47095,36.3353843636478,-89.4934667960498,3841,465,12.1,266,6.9,268,7,271,7.1,-199,-42.8,6.0233918128655,1.44727935433481,6.92857142857143,3.61720430107527,
tn,Lauderdale,47097,35.7610127809556,-89.6314442055664,13561,1231,9.1,1738,12.8,1752,12.9,1766,13,507,41.2,7.23126232741617,1.9318634319003,7.85558112773303,5.52721364744111,
tn,Lawrence,47099,35.2172743541956,-87.3955844374182,23897,334,1.4,2241,9.4,2262,9.5,2282,9.5,1907,571,7.53047144499808,1.71297652424991,8.20169567157519,5.58383233532934,
tn,Lewis,47101,35.5272807264279,-87.4930956193432,8019,302,3.8,947,11.8,954,11.9,962,12,645,213.6,8.05327102803738,1.94113979299164,8.64202745512144,6.08940397350993,
tn,Lincoln,47103,35.1405167443628,-86.5889416253834,19326,603,3.1,2484,12.9,2498,12.9,2511,13,1881,311.9,7.38287832827772,1.97992341922798,8.14694041867955,5.16086235489221,
tn,Loudon,47105,35.7347791293083,-84.3118675875551,33938,438,1.3,7042,20.7,7084,20.9,7126,21,6604,1507.8,6.94479715915205,2.62782132123284,7.99573984663448,7.79223744292237,
tn,McMinn,47107,35.4247444764341,-84.6174748904249,30010,620,2.1,3275,10.9,3318,11.1,3361,11.2,2655,428.2,7.33638443935927,1.83042319226924,8.0757251908397,6.06935483870968,
tn,McNairy,47109,35.1754531585833,-88.5636398806799,18304,601,3.3,1427,7.8,1440,7.9,1453,7.9,826,137.4,7.39024390243903,1.58686625874126,8.06166783461808,5.05158069883527,
tn,Macon,47111,36.5320343546772,-86.007270142008,12730,272,2.1,1323,10.4,1340,10.5,1357,10.7,1051,386.4,8.00666666666667,1.82560879811469,8.58201058201058,7.37867647058824,
tn,Madison,47113,35.6081436966299,-88.8384708521722,47487,1356,2.9,2240,4.7,2272,4.8,2303,4.8,884,65.2,6.37826961770624,1.33773453787352,7.33258928571429,3.29793510324484,
tn,Marion,47115,35.1293330014234,-85.6219932117728,20351,1097,5.4,4461,21.9,4508,22.2,4555,22.4,3364,306.7,7.18730734360834,2.67672350253059,8.0145707240529,6.70829535095716,
tn,Marshall,47117,35.4688611106518,-86.7650174386734,16782,918,5.5,2184,13,2210,13.2,2235,13.3,1266,137.9,7.08413284132841,1.98248122988917,7.96840659340659,4.86492374727669,
tn,Maury,47119,35.6169396312404,-87.0770139545248,43782,1176,2.7,5225,11.9,5265,12,5305,12.1,4049,344.3,7.34388771013547,1.88778493444795,8.00727272727273,5.56632653061225,
tn,Meigs,47121,35.512826424095,-84.8133871962262,8844,264,3,2468,27.9,2478,28,2488,28.1,2204,834.8,7.41170250264364,3.05676164631389,7.9805510534846,7.06439393939394,
tn,Monroe,47123,35.4426448467415,-84.2528004963946,28967,485,1.7,4408,15.2,4430,15.3,4451,15.4,3923,808.9,7.32999814711877,2.17937653191563,8.13929219600726,6.22268041237113,
tn,Montgomery,47125,36.49685807722,-87.3828870769213,79296,746,0.9,5784,7.3,5970,7.5,6157,7.8,5038,675.3,6.30086716099032,1.53191838175948,7.31241355463347,5.58445040214477,
tn,Moore,47127,35.2846174046444,-86.3587711262042,3917,96,2.5,677,17.3,682,17.4,688,17.6,581,605.2,8.35160427807487,2.40388052080674,8.85672082717873,5.76041666666667,
tn,Morgan,47129,36.1350244126341,-84.6492037421275,13401,173,1.3,1661,12.4,1676,12.5,1691,12.6,1488,860.1,8.18010752688172,1.99656742034177,8.72245635159542,7.94797687861272,
tn,Obion,47131,36.3582326727329,-89.1487992015772,19511,1598,8.2,1637,8.4,1652,8.5,1668,8.5,39,2.4,6.43857142857143,1.58536210342884,7.32009773976787,4.07947434292866,
tn,Overton,47133,36.3449979328337,-85.2880811587097,14804,168,1.1,1153,7.8,1171,7.9,1189,8,985,586.3,7.59235209235209,1.61719805457984,8.40156114483955,5.82738095238095,
tn,Perry,47135,35.6426343019275,-87.8589667443572,8195,1538,18.8,2689,32.8,2708,33,2728,33.3,1151,74.8,8.07140538786108,3.65857230018304,8.6846411305318,6.63849154746424,
tn,Pickett,47137,36.5584092573954,-85.0749898281612,5579,31,0.6,321,5.8,330,5.9,340,6.1,290,935.5,7.35748792270531,1.47176913425345,8.45794392523365,7.7741935483871,
tn,Polk,47139,35.1199026750657,-84.5233230208919,12648,553,4.4,2246,17.8,2258,17.9,2270,17.9,1693,306.1,8.11673921646221,2.42188488298545,8.68788958147818,7.8372513562387,
tn,Putnam,47141,36.1408328072454,-85.4951907240213,36293,227,0.6,2598,7.2,2670,7.4,2743,7.6,2371,1044.5,6.86020531400966,1.53478632243132,7.7167051578137,6.79735682819383,
tn,Rhea,47143,35.6087114536684,-84.9243960855393,20662,1238,6,5807,28.1,5838,28.3,5868,28.4,4569,369.1,7.39885998246127,3.11891394831091,8.06113311520579,6.49919224555735,
tn,Roane,47145,35.8478552217664,-84.5232421787776,34802,818,2.4,8665,24.9,8711,25,8757,25.2,7847,959.3,7.21135616173341,2.84509510947647,7.87801500288517,6.79828850855746,
tn,Robertson,47147,36.5254454839715,-86.8705670587318,33057,272,0.8,2299,7,2338,7.1,2376,7.2,2027,745.2,7.3043956043956,1.52064615663853,7.98129621574598,6.44117647058824,
tn,Rutherford,47149,35.842706527397,-86.4167378964686,105692,3680,3.5,8013,7.6,8256,7.8,8500,8,4333,117.7,5.70964343598055,1.54987132422511,6.88069387245726,4.06766304347826,
tn,Scott,47151,36.4285385751474,-84.5035173073508,14368,435,3,1945,13.5,1976,13.8,2006,14,1510,347.1,7.82088888888889,2.06813752783964,8.46375321336761,6.53333333333333,
tn,Sequatchie,47153,35.37114774717,-85.410586905276,11690,528,4.5,1507,12.9,1524,13,1541,13.2,979,185.4,7.09879912663755,1.95577416595381,7.89382879893829,5.95454545454545,
tn,Sevier,47155,35.7846556199413,-83.5241923116264,68556,2394,3.5,10187,14.9,10296,15,10406,15.2,7793,325.5,7.61433949909969,2.17880273061439,8.39275547266124,6.9812030075188,
tn,Shelby,47157,35.1839946707537,-89.8955956150656,349369,6785,1.9,19730,5.6,21294,6.1,22857,6.5,12945,190.8,4.79240820263164,1.47270364571556,6.31203731873035,3.48901989683125,
tn,Smith,47159,36.2505340956456,-85.9567145693397,11311,769,6.8,3763,33.3,3779,33.4,3795,33.6,2994,389.3,7.7464406779661,3.63928918751658,8.45867658782886,8.44213263979194,
tn,Stewart,47161,36.5011043565541,-87.8384575867943,11441,249,2.2,1721,15,1733,15.1,1745,15.3,1472,591.2,7.39530516431925,2.19063018966874,8.28463329452852,6.29317269076305,
tn,Sullivan,47163,36.5129154064622,-82.3041428597548,76788,1718,2.2,9496,12.4,9684,12.6,9871,12.9,7778,452.7,7.08382180539273,1.94615044017294,7.94597725358046,6.85564610011642,
tn,Sumner,47165,36.4694088387093,-86.4603553658684,75349,1664,2.2,8978,11.9,9073,12,9168,12.2,7314,439.5,6.81554470945759,1.83811331271815,7.48318110937848,5.90324519230769,
tn,Tipton,47167,35.4968698718391,-89.7592441407129,28856,1152,4,2267,7.9,2285,7.9,2303,8,1115,96.8,6.93013899049012,1.56185888550042,7.6682840758712,4.43315972222222,
tn,Trousdale,47169,36.3920428565528,-86.1567527604089,4892,199,4.1,1029,21,1036,21.2,1042,21.3,830,417.1,7.08899297423888,2.59443990188062,7.8620019436346,8.01005025125628,
tn,Unicoi,47171,36.1107306365516,-82.432342828035,10240,531,5.2,3320,32.4,3356,32.8,3391,33.1,2789,525.2,7.87207159778889,3.54951171875,8.51385542168675,6.75141242937853,
tn,Union,47173,36.2878738808814,-83.83751391433,14131,134,0.9,1855,13.1,1870,13.2,1885,13.3,1721,1284.3,7.63111111111111,2.05583468968934,8.49487870619946,7.40298507462687,
tn,Van Buren,47175,35.6959814620491,-85.4526142034956,6900,245,3.6,682,9.9,692,10,702,10.2,437,178.4,7.66626794258373,1.80768115942029,8.57184750733138,6.64897959183674,
tn,Warren,47177,35.6786827093032,-85.7784980390483,22396,523,2.3,1840,8.2,1860,8.3,1879,8.4,1317,251.8,6.88331892826275,1.60787640650116,7.74021739130435,5.90439770554493,
tn,Washington,47179,36.2932966257923,-82.4974202593687,57599,1193,2.1,5944,10.3,6032,10.5,6119,10.6,4751,398.2,6.99768864717879,1.76586399069428,7.80635935397039,5.38977367979883,
tn,Wayne,47181,35.2399169268333,-87.788013163658,12467,1045,8.4,2710,21.7,2732,21.9,2753,22.1,1665,159.3,8.06649451258877,2.75599582898853,8.69557195571956,6.87272727272727,
tn,Weakley,47183,36.2983026848412,-88.7177438496503,19791,698,3.5,1436,7.3,1444,7.3,1452,7.3,738,105.7,6.90850815850816,1.51230357233086,7.55571030640669,3.73352435530086,
tn,White,47185,35.9263484289827,-85.4551771798027,16802,213,1.3,1364,8.1,1392,8.3,1419,8.4,1151,540.4,7.10005851375073,1.62046184977979,7.97727272727273,7.19718309859155,
tn,Williamson,47187,35.8938381549608,-86.8986535605494,86483,2571,3,6770,7.8,6906,8,7043,8.1,4199,163.3,6.68903137165102,1.5745406611704,7.59955686853767,4.33800077790743,
tn,Wilson,47189,36.1548497851436,-86.2977463555942,57472,1951,3.4,6599,11.5,6665,11.6,6731,11.7,4648,238.2,6.59109212934716,1.79724039532294,7.33035308380058,5.24295233213737,
wv,Barbour,54001,39.1329338743775,-80.0030288846877,15172,1359,9,3644,24,3662,24.1,3681,24.3,2285,168.1,8.45710022382492,2.97633799103612,8.96405049396268,8.01913171449595,
wv,Berkeley,54003,39.4640664934984,-78.0275428663043,54554,2197,4,5153,9.4,5271,9.7,5389,9.9,2956,134.5,6.78360413589365,1.71772922242182,7.77915777217155,7.2603550295858,
wv,Boone,54005,38.0229965907091,-81.7112126284991,16094,4310,26.8,7691,47.8,7704,47.9,7717,47.9,3381,78.4,8.70041172196658,4.95116192369827,9.05694968144585,7.30904872389791,
wv,Braxton,54007,38.6998727176203,-80.7192881391224,14356,1121,7.8,3692,25.7,3715,25.9,3738,26,2571,229.3,8.43717888836992,3.21830593480078,9.14815817984832,7.07850133809099,
wv,Brooke,54009,40.273818130001,-80.5764203083959,15227,1568,10.3,3682,24.2,3689,24.2,3696,24.3,2114,134.8,8.41455618391935,2.98036382741183,8.88810429114612,9.47002551020408,
wv,Cabell,54011,38.4202968769883,-82.2417166779488,50297,3660,7.3,8739,17.4,8926,17.7,9113,18.1,5079,138.8,6.46991473812424,2.33928464918385,7.74768280123584,5.87595628415301,
wv,Calhoun,54013,38.8444981834995,-81.1175718299975,8376,848,10.1,2215,26.4,2224,26.6,2232,26.6,1367,161.2,8.51015333609615,3.16356255969437,8.91151241534989,7.23702830188679,
wv,Clay,54015,38.4625319964844,-81.0750874679746,9130,1530,16.8,3295,36.1,3300,36.1,3304,36.2,1765,115.4,9.51062573789847,4.15815991237678,9.67496206373293,7.77516339869281,
wv,Doddridge,54017,39.2691704778078,-80.7069659499705,7859,843,10.7,2861,36.4,2874,36.6,2887,36.7,2018,239.4,8.95325542570952,4.03091996437206,9.19468717231737,7.06642941874259,
wv,Fayette,54019,38.0287775597573,-81.0811920732358,39077,2640,6.8,9347,23.9,9452,24.2,9557,24.5,6707,254.1,8.63501336766016,2.97318115515521,9.02075532256339,7.92310606060606,
wv,Gilmer,54021,38.9240617743466,-80.8570836303847,7629,997,13.1,2819,37,2828,37.1,2836,37.2,1822,182.7,8.51251646903821,3.98964477651068,8.88009932600213,7.65396188565697,
wv,Grant,54023,39.1051344211841,-79.1955700679585,12124,591,4.9,1857,15.3,1872,15.4,1888,15.6,1266,214.2,7.47290853922844,2.23168921148136,8.28379106085083,6.63620981387479,
wv,Greenbrier,54025,37.9469326633038,-80.4529516077033,30427,3043,10,3607,11.9,3660,12,3712,12.2,564,18.5,6.51948881789137,1.85167778617675,7.37870806764624,3.49917844232665,
wv,Hampshire,54027,39.3170653091707,-78.6141684414968,21490,2034,9.5,1629,7.6,1658,7.7,1688,7.9,-405,-19.9,6.14154652686763,1.54765006979991,7.06322897483119,3.51474926253687,
wv,Hancock,54029,40.521854515386,-80.5738922253488,20609,858,4.2,2832,13.7,2846,13.8,2860,13.9,1974,230.1,7.23291287767674,2.03100587122131,7.93163301452356,8.36480186480187,
wv,Hardy,54031,39.0075031048129,-78.8579223831,14761,879,6,1942,13.2,1973,13.4,2004,13.6,1063,120.9,6.65136298421808,2.06740735722512,7.79763130792997,4.4448236632537,
wv,Harrison,54033,39.2835296916209,-80.379874989522,54132,3934,7.3,9958,18.4,10029,18.5,10100,18.7,6024,153.1,8.06179021729411,2.45887829749501,8.59686652606207,7.82384341637011,
wv,Jackson,54035,38.8344683216266,-81.6747943199267,1551,210,13.5,566,36.5,568,36.6,569,36.7,356,169.5,8.58387096774194,4.03159252095422,8.99293286219081,7.82380952380952,
wv,Jefferson,54037,39.3076165968889,-77.8627359847169,30133,1263,4.2,2889,9.6,2922,9.7,2954,9.8,1626,128.7,7.50742721330957,1.72691069591478,8.16279875303083,6.73713380839272,
wv,Kanawha,54039,38.3365748211047,-81.5281178784689,114592,16261,14.2,50892,44.4,51025,44.5,51158,44.6,34631,213,8.19290134692392,4.44856534487573,8.51703607639708,8.63354037267081,
wv,Lewis,54041,38.9958676788847,-80.502159336347,15432,1906,12.4,4423,28.7,4460,28.9,4497,29.1,2517,132.1,7.49767201241593,3.44167962674961,8.56884467555958,5.83578174186779,
wv,Lincoln,54043,38.1753645382678,-82.0703922280305,15719,2639,16.8,5658,36,5678,36.1,5699,36.3,3019,114.4,8.66553617571059,4.01959412176347,9.13432308236126,7.3501326259947,
wv,Logan,54045,37.8315338847473,-81.9353404842337,20204,5547,27.5,11029,54.6,11071,54.8,11113,55,5482,98.8,8.91857398111121,5.60636507622253,9.25550820563968,8.26969533080945,
wv,McDowell,54047,37.3785013177871,-81.6535837859061,31114,6904,22.2,15267,49.1,15314,49.2,15362,49.4,8363,121.1,9.1936201309017,5.14421160892203,9.40741230098434,8.40454808806489,
wv,Marion,54049,39.5099950740127,-80.2433983427974,39476,2274,5.8,5895,14.9,5926,15,5958,15.1,3621,159.2,8.49004233965815,2.20995034957949,8.88293179504581,6.13236587510994,
wv,Marshall,54051,39.8606128568335,-80.6633865368542,23649,2229,9.4,5865,24.8,5892,24.9,5918,25,3636,163.1,6.69844042420462,2.93128673516851,7.80085251491901,7.46388515029161,
wv,Mason,54053,38.7697358041769,-82.0265380468411,20682,2835,13.7,5080,24.6,5133,24.8,5186,25.1,2245,79.2,6.4325644504749,2.93588627792283,7.58838582677165,6.69805996472663,
wv,Mercer,54055,37.4055150244758,-81.111444460229,45905,2991,6.5,7850,17.1,8012,17.5,8175,17.8,4859,162.5,7.51389042612064,2.28206077769306,8.07974522292994,6.74824473420261,
wv,Mineral,54057,39.4147218970739,-78.9437462563216,19222,1288,6.7,2650,13.8,2726,14.2,2802,14.6,1362,105.7,6.63741339491917,2.01591925918219,7.54301886792453,4.27795031055901,
wv,Mingo,54059,37.726404036273,-82.134761215254,25944,5388,20.8,12407,47.8,12458,48,12510,48.2,7019,130.3,8.58845283018868,4.87553962380512,8.92737970500524,7.80270972531552,
wv,Monongalia,54061,39.630283888789,-80.0465441582728,52451,1625,3.1,6411,12.2,6430,12.3,6448,12.3,4786,294.5,8.26237979044065,1.96465272349431,8.67150210575573,6.95753846153846,
wv,Monroe,54063,37.5603718308162,-80.5505540152345,13022,725,5.6,862,6.6,891,6.8,920,7.1,137,18.9,6.62177121771218,1.46797726923668,7.40139211136891,3.00551724137931,
wv,Morgan,54065,39.5604331495092,-78.2577317098884,15001,1086,7.2,996,6.6,1018,6.8,1041,6.9,-90,-8.3,6.5974025974026,1.48843410439304,7.49799196787149,3.61418047882136,
wv,Nicholas,54067,38.2917014586322,-80.7993280946929,24054,1709,7.1,4412,18.3,4462,18.5,4511,18.8,2703,158.2,8.06285253827558,2.45755383719963,8.60743427017226,7.39964891749561,
wv,Ohio,54069,40.0969217075731,-80.6190570071843,25629,4444,17.3,8639,33.7,8666,33.8,8692,33.9,4195,94.4,7.35374021318744,3.62811658667915,8.16240305590925,8.83933393339334,
wv,Pendleton,54071,38.6807283767555,-79.3508935920193,10480,832,7.9,2474,23.6,2498,23.8,2521,24.1,1642,197.4,8.33064516129032,2.90820610687023,8.8181083265966,6.84615384615385,
wv,Pleasants,54073,39.3709375942738,-81.1606296676233,6567,688,10.5,1963,29.9,1984,30.2,2004,30.5,1275,185.3,6.77563374952705,3.32450129435054,7.76668364747835,7.38662790697674,
wv,Pocahontas,54075,38.3317953420118,-80.0077524976044,14286,1369,9.6,3441,24.1,3472,24.3,3503,24.5,2072,151.4,8.18811881188119,2.93112137757245,8.72595175820982,8.20672023374726,
wv,Preston,54077,39.4692968708973,-79.6681619853096,32297,1212,3.8,3531,10.9,3550,11,3570,11.1,2319,191.3,8.15099135739705,1.87104065393071,8.66270178419711,7.90594059405941,
wv,Putnam,54079,38.5086167772113,-81.9089929254405,34845,3233,9.3,9865,28.3,9942,28.5,10020,28.8,6632,205.1,7.63390773649255,3.12125125556034,8.10957932083122,7.40334055057222,
wv,Raleigh,54081,37.7713611083258,-81.2486346746802,60022,4279,7.1,9908,16.5,10100,16.8,10293,17.1,5629,131.5,7.93762183235867,2.3044883542701,8.52523213564796,7.52862818415518,
wv,Randolph,54083,38.7747231231862,-79.8757955735317,23454,2456,10.5,5677,24.2,5744,24.5,5810,24.8,3221,131.1,7.72443700547778,2.88424149398823,8.38435793552933,6.26180781758958,
wv,Ritchie,54085,39.1782673749633,-81.0629473805874,13270,698,5.3,3231,24.3,3246,24.5,3262,24.6,2533,362.9,8.65059197227837,2.99653353428787,9.00092850510678,7.88968481375358,
wv,Roane,54087,38.7140255918617,-81.3483495174081,13396,1194,8.9,3651,27.3,3668,27.4,3684,27.5,2457,205.8,8.79501669663499,3.26530307554494,9.13831826896741,7.8391959798995,
wv,Summers,54089,37.6558723240519,-80.8585729141181,14149,2033,14.4,1126,8,1146,8.1,1167,8.2,-907,-44.6,6.32422360248447,1.60583786840059,7.29307282415631,2.29365469749139,
wv,Taylor,54091,39.3359933046502,-80.0461837010651,13304,551,4.1,1502,11.3,1521,11.4,1540,11.6,951,172.6,8.4215985356925,1.91431148526759,8.8422103861518,4.92014519056261,
wv,Tucker,54093,39.1135952897125,-79.5649741708574,9823,1097,11.2,1666,17,1679,17.1,1692,17.2,569,51.9,7.14935988620199,2.32026875699888,7.99459783913565,6.19416590701914,
wv,Tyler,54095,39.4652776369028,-80.8848251911437,8869,1228,13.8,2964,33.4,2976,33.6,2989,33.7,1736,141.4,7.47551020408163,3.5043409629045,7.99122807017544,6.50488599348534,
wv,Upshur,54097,38.8978264219578,-80.2334232079026,18832,1830,9.7,4338,23,4374,23.2,4410,23.4,2508,137,7.50976600270741,2.7874893797791,8.22498847395113,6.92349726775956,
wv,Wayne,54099,38.1459486611686,-82.4269495915088,27749,3455,12.5,8011,28.9,8070,29.1,8130,29.3,4556,131.9,6.68056506849315,3.39104111859887,8.24728498314817,6.5904486251809,
wv,Webster,54101,38.4947373058021,-80.4218730680052,10802,1809,16.7,3143,29.1,3166,29.3,3188,29.5,1334,73.7,8.27327413348611,3.35058322532864,8.77346484250716,7.15422885572139,
wv,Wetzel,54103,39.6052632661244,-80.6390976036208,15422,2806,18.2,6306,40.9,6318,41,6330,41,3500,124.7,7.75959842626509,4.23077421864868,8.42578496669838,8.3264433357092,
wv,Wirt,54105,39.0224214623877,-81.3786238259311,6993,1015,14.5,1893,27.1,1906,27.3,1920,27.5,878,86.5,7.05502483760031,3.26598026598027,8.37400950871632,7.10049261083744,
wv,Wood,54107,39.2111317394136,-81.5149653170484,57917,4687,8.1,13719,23.7,13855,23.9,13991,24.2,9032,192.7,5.9921430882285,2.86499646045203,7.24185436256287,7.73629187113292,
wv,Wyoming,54109,37.6096118281758,-81.5491772355259,21934,4020,18.3,11476,52.3,11520,52.5,11564,52.7,7456,185.5,8.77235570968541,5.29155648764475,9.04165214360404,8.07014925373134,
mi,Alcona,26001,44.6836233780869,-83.1290075152489,19996,1330,6.7,858,4.3,868,4.3,877,4.4,-472,-35.5,5.8930612244898,1.2997599519904,6.96853146853147,2.15187969924812,
mi,Alger,26003,46.9482692107738,-86.5721601716581,12565,481,3.8,729,5.8,742,5.9,756,6,248,51.6,5.70065481758653,1.39992041384799,6.79012345679012,1.52598752598753,
mi,Allegan,26005,42.59367327318,-86.2917651855332,66907,578,0.9,4996,7.5,5064,7.6,5131,7.7,4418,764.4,5.80360637405647,1.51362338768739,6.80864691753403,2.780276816609,
mi,Antrim,26009,45.0073838126011,-85.175822157818,36807,418,1.1,3060,8.3,3104,8.4,3149,8.6,2642,632.1,6.28588690188497,1.59426196104002,7.28202614379085,1.76555023923445,
mi,Arenac,26011,44.0428854725903,-83.7472418423937,10795,1916,17.7,700,6.5,709,6.6,718,6.7,-1216,-63.5,5.36545454545455,1.44483557202409,6.47714285714286,2.10020876826722,
mi,Barry,26015,42.5950284306918,-85.3089680839301,33006,1814,5.5,3153,9.6,3182,9.6,3210,9.7,1339,73.8,6.18123968889936,1.66606071623341,7.12781477957501,4.10363836824697,
mi,Bay,26017,43.7213655935274,-83.9418350885422,52112,5143,9.9,2335,4.5,2351,4.5,2367,4.5,-2808,-54.6,4.59166345040525,1.35715382253608,6.03768736616702,1.91503013805172,
mi,Benzie,26019,44.6445874691689,-86.3006262025289,19253,745,3.9,2065,10.7,2096,10.9,2126,11,1320,177.2,6.07656458055925,1.79208435049083,7.23970944309927,2.04161073825503,
mi,Berrien,26021,41.995777688361,-86.6854211620776,86457,2837,3.3,6523,7.5,6648,7.7,6774,7.8,3686,129.9,5.85991010273973,1.52524376279538,6.87337114824467,3.63835037010927,
mi,Branch,26023,41.9161186536831,-85.0590443603829,26609,1278,4.8,3006,11.3,3048,11.5,3089,11.6,1728,135.2,5.95321497120921,1.77586530873013,6.9105123087159,4.64084507042254,
mi,Calhoun,26025,42.2465394717579,-85.0055834873656,62887,1614,2.6,4155,6.6,4232,6.7,4308,6.9,2541,157.4,5.71858904323396,1.48073528710226,6.84380264741276,3.07682775712516,
mi,Cass,26027,41.9154003337769,-85.993457750712,35907,677,1.9,2380,6.6,2449,6.8,2518,7,1703,251.6,5.75317348377997,1.46926783078508,6.80882352941176,2.04431314623338,
mi,Charlevoix,26029,45.5024976764044,-85.3732502159974,28693,1072,3.7,1530,5.3,1552,5.4,1574,5.5,458,42.7,6.28365831012071,1.39664726588367,7.45555555555556,2.09514925373134,
mi,Cheboygan,26031,45.4729404287385,-84.4920644166456,30142,1415,4.7,2363,7.8,2384,7.9,2405,8,948,67,5.82569343065693,1.54833786742751,6.91451544646636,3.23038869257951,
mi,Chippewa,26033,46.3281784324027,-84.5293679243276,27899,3582,12.8,3460,12.4,3466,12.4,3473,12.4,-122,-3.4,6.55378944943561,1.86415283701925,7.34248554913295,4.46621998883305,
mi,Clinton,26037,42.9436523661543,-84.6015165533182,36698,1397,3.8,2091,5.7,2110,5.7,2129,5.8,694,49.7,5.5904468412943,1.40590767889258,6.78287900526064,2.88260558339299,
mi,Crawford,26039,44.6836111697289,-84.610337108715,18071,561,3.1,1809,10,1833,10.1,1857,10.3,1248,222.5,6.28467153284672,1.72115544242156,7.34273079049198,3.87522281639929,
mi,Delta,26041,45.7916364577454,-86.8705966508045,23145,864,3.7,2192,9.5,2218,9.6,2245,9.7,1328,153.7,6.30186125211506,1.67690645927846,7.28147810218978,3.51851851851852,
mi,Dickinson,26043,46.0092394576768,-87.8702584452699,11837,330,2.8,808,6.8,828,7,849,7.2,478,144.8,6.82873453853473,1.51752977950494,7.78836633663366,3.71818181818182,
mi,Eaton,26045,42.5960697749782,-84.8383148405594,46222,1582,3.4,3181,6.9,3217,7,3253,7,1599,101.1,6.03294321629822,1.50240145385314,7.15183904432568,4.38558786346397,
mi,Emmet,26047,45.5875424695071,-84.9814699609284,31514,199,0.6,2136,6.8,2188,6.9,2241,7.1,1937,973.4,6.13476821192053,1.49206701783334,7.21722846441948,1.76381909547739,
mi,Genesee,26049,43.0217229031315,-83.7067110418532,190414,2741,1.4,9379,4.9,9502,5,9624,5.1,6638,242.2,5.29391718106996,1.35070425493924,6.45836443117603,4.15322874863189,
mi,Gladwin,26051,43.990673944658,-84.3882463135997,27813,495,1.8,5235,18.8,5255,18.9,5275,19,4740,957.6,6.576483147781,2.31467299464279,7.33925501432665,5.77575757575758,
mi,Gogebic,26053,46.4954898598716,-89.795471792685,4285,222,5.2,324,7.6,326,7.6,328,7.7,102,45.9,6.23413566739606,1.55822637106184,7.39628482972136,3.77027027027027,
mi,Grand Traverse,26055,44.7162390792254,-85.5522032461082,51248,647,1.3,4531,8.8,4588,9,4644,9.1,3884,600.3,6.03591743864781,1.60462847330628,6.92716839549768,3.46676970633694,
mi,Gratiot,26057,43.2927326789138,-84.6049110537692,22300,457,2,1401,6.3,1418,6.4,1435,6.4,944,206.6,5.45835250805338,1.43443946188341,6.57815845824411,4.36980306345733,
mi,Hillsdale,26059,41.8877674932601,-84.5929278019092,32848,499,1.5,2061,6.3,2085,6.3,2109,6.4,1562,313,6.06898954703833,1.44288845591817,7.08005822416303,3.91583166332665,
mi,Houghton,26061,46.9915439407897,-88.6520579518385,26268,141,0.5,1716,6.5,1744,6.6,1772,6.7,1575,1117,6.33433864713486,1.47133394243947,7.37179487179487,2.59574468085106,
mi,Ingham,26065,42.5970991967106,-84.3735369769334,101723,3962,3.9,5816,5.7,5913,5.8,6010,5.9,1854,46.8,5.39144536793027,1.42592137471368,6.64288170563962,4.27158001009591,
mi,Ionia,26067,42.9450938315162,-85.0746031180849,31331,1263,4,3125,10,3163,10.1,3201,10.2,1862,147.4,6.9119835771106,1.73534199355271,7.74752,5.04750593824228,
mi,Iosco,26069,44.3370929481387,-83.0853006646932,1381,0,0,46,3.3,46,3.3,47,3.4,46,Inf,6.65454545454545,1.22519913106445,7.30434782608696,,
mi,Iron,26071,46.2086670875196,-88.5305528693508,11463,0,0,767,6.7,776,6.8,784,6.8,767,Inf,6.65570400822199,1.48006630027044,7.53455019556715,,
mi,Isabella,26073,43.6406015599075,-84.8467965535054,30392,1084,3.6,2132,7,2152,7.1,2171,7.1,1048,96.7,5.88374417055297,1.48239668333772,6.92917448405253,4.13653136531365,
mi,Jackson,26075,42.2484873980609,-84.423437303031,77939,2924,3.8,3820,4.9,3880,5,3939,5.1,896,30.6,5.3419233186675,1.35453367377051,6.55732984293194,2.609439124487,
mi,Kalamazoo,26077,42.2454540022722,-85.5311845383413,98525,1479,1.5,7025,7.1,7179,7.3,7333,7.4,5546,375,5.65565201157472,1.50622684597818,6.74804270462634,4.9263015551048,
mi,Kalkaska,26079,44.6846764139311,-85.0902500996284,20193,99,0.5,1751,8.7,1774,8.8,1796,8.9,1652,1668.7,6.38840453356582,1.61214282176992,7.29297544260423,2.28282828282828,
mi,Kent,26081,43.0321563060734,-85.5492962829538,224578,2403,1.1,18112,8.1,18346,8.2,18579,8.3,15709,653.7,5.78764889133223,1.58167318259135,6.74149734982332,5.60757386600083,
mi,Keweenaw,26083,47.7152823035784,-88.252150805743,4837,23,0.5,354,7.3,360,7.4,365,7.5,331,1439.1,6.00185528756957,1.55737027082903,7.43342776203966,1.08695652173913,
mi,Lake,26085,43.990066934122,-85.8016452398086,28765,145,0.5,2128,7.4,2162,7.5,2197,7.6,1983,1367.6,5.98664886515354,1.51938119242135,7.00234962406015,2.79310344827586,
mi,Lapeer,26087,43.0901474299214,-83.2217837237879,41680,903,2.2,2057,4.9,2088,5,2120,5.1,1154,127.8,5.72213033410519,1.34249040307102,6.75157997083131,3.35105204872647,
mi,Leelanau,26089,45.1517708593212,-86.0384960524646,24558,441,1.8,3080,12.5,3117,12.7,3154,12.8,2639,598.4,7.09424657534247,1.90577408583761,7.71948051948052,3.12244897959184,
mi,Lenawee,26091,41.8950837596277,-84.0663667519454,41971,649,1.5,3222,7.7,3267,7.8,3312,7.9,2573,396.5,5.50393553223388,1.5726096590503,6.85133457479826,4.31741140215717,
mi,Livingston,26093,42.6029174356563,-83.911527745255,88099,2830,3.2,5085,5.8,5170,5.9,5254,6,2255,79.7,5.75285171102662,1.41146891565171,6.8361848574238,3.05194346289753,
mi,Luce,26095,46.7140170601293,-85.5641188690229,9874,0,0,480,4.9,485,4.9,490,5,480,Inf,6.23474178403756,1.33876848288434,7.18958333333333,,
mi,Mackinac,26097,45.9989328531481,-85.0094165913783,21237,955,4.5,1279,6,1292,6.1,1304,6.1,324,33.9,5.45695695695696,1.41931534585864,6.55277560594214,1.93717277486911,
mi,Macomb,26099,42.6727950995981,-82.9101752612295,326529,5293,1.6,22463,6.9,23788,7.3,25114,7.7,17170,324.4,4.73651987500908,1.62987667251607,6.2416863286293,3.3763461175137,
mi,Manistee,26101,44.3428003951935,-86.3641128999657,25099,884,3.5,2312,9.2,2336,9.3,2360,9.4,1428,161.5,6.0386292834891,1.64440814375075,7.04584775086505,1.74886877828054,
mi,Marquette,26103,46.6628779661383,-87.5735241034588,6311,39,0.6,192,3,197,3.1,202,3.2,153,392.3,5.21904761904762,1.21058469339249,6.44270833333333,2.38461538461538,
mi,Mason,26105,43.9960676899631,-86.5450922685496,24038,526,2.2,1539,6.4,1562,6.5,1585,6.6,1013,192.6,5.68700705687007,1.46971461852068,6.89473684210526,3.29847908745247,
mi,Mecosta,26107,43.6407681918706,-85.3246335487086,33163,432,1.3,2787,8.4,2830,8.5,2873,8.7,2355,545.1,6.67335865436788,1.63058227542743,7.69644779332616,6.92592592592593,
mi,Menominee,26109,45.5251213568195,-87.5096840022436,10693,604,5.6,524,4.9,530,5,535,5,-80,-13.2,6.18002812939522,1.34443093612644,7.17748091603053,3.39238410596027,
mi,Midland,26111,43.6468567078845,-84.3881091146811,40996,1181,2.9,5101,12.4,5135,12.5,5169,12.6,3920,331.9,6.18629671574179,1.89364816079618,7.26877082924917,4.98221845893311,
mi,Missaukee,26113,44.3373203724875,-85.0946817376043,3097,0,0,165,5.3,168,5.4,172,5.6,165,Inf,5.52380952380952,1.33742331288344,6.26666666666667,,
mi,Monroe,26115,41.9213775233934,-83.4942863587623,68412,8002,11.7,7712,11.3,7982,11.7,8251,12.1,-290,-3.6,5.35598012991976,1.83315792551014,6.63654045643154,3.27205698575356,
mi,Montcalm,26117,43.3109397091559,-85.1524811099751,43575,41,0.1,2492,5.7,2526,5.8,2561,5.9,2451,5978,5.86925601750547,1.40853700516351,6.97712680577849,4.53658536585366,
mi,Montmorency,26119,45.0275448912642,-84.1272040860055,19212,0,0,1220,6.4,1232,6.4,1244,6.5,1220,Inf,6.44798978940651,1.44435769310847,7.30573770491803,,
mi,Muskegon,26121,43.2899298862653,-86.5352341115114,82283,1759,2.1,5359,6.5,5472,6.7,5584,6.8,3600,204.7,5.27666844634277,1.48674695866704,6.58574360888225,3.9806708357021,
mi,Newaygo,26123,43.5541675519114,-85.8009172937209,39344,558,1.4,3678,9.3,3711,9.4,3744,9.5,3120,559.1,6.58649437265527,1.6812728751525,7.53942359978249,6.02150537634409,
mi,Oakland,26125,42.6603998737467,-83.3858176057852,484354,5273,1.1,22213,4.6,22781,4.7,23349,4.8,16940,321.3,5.10021161189891,1.34803470189159,6.44690046369243,3.40565143182249,
mi,Oceana,26127,43.6446171312309,-86.581771996837,26307,631,2.4,2352,8.9,2384,9.1,2417,9.2,1721,272.7,5.9860956618465,1.68156764359296,7.17474489795918,4.48335974643423,
mi,Ogemaw,26129,44.3349392585384,-84.1264136572556,18107,0,0,768,4.2,776,4.3,785,4.3,768,Inf,6.01756097560976,1.28403379908323,6.86197916666667,,
mi,Osceola,26133,43.9898287022217,-85.3252875938517,12450,85,0.7,807,6.5,817,6.6,827,6.6,722,849.4,6.50138248847926,1.47943775100402,7.54770755885998,4.62352941176471,
mi,Oscoda,26135,44.681758182109,-84.1297714191781,15180,0,0,885,5.8,890,5.9,895,5.9,885,Inf,7.01388888888889,1.42786561264822,7.82033898305085,,
mi,Otsego,26137,45.0214343277521,-84.5989931681014,27100,0,0,1676,6.2,1706,6.3,1736,6.4,1676,Inf,6.36237712243074,1.44284132841328,7.34188544152745,,
mi,Ottawa,26139,42.9485349029921,-86.4218821701993,110014,2209,2,9436,8.6,9537,8.7,9638,8.8,7227,327.2,5.39523625096824,1.61893031795953,6.50434506146672,4.63920325939339,
mi,Presque Isle,26141,45.449313095273,-83.5277564537756,24246,1,0,1705,7,1714,7.1,1724,7.1,1704,170400,5.61135758651287,1.42868926833292,6.37243401759531,4,
mi,Roscommon,26143,44.3356085987804,-84.6115999107492,35014,256,0.7,1697,4.8,1720,4.9,1742,5,1441,562.9,5.26928728875827,1.33189581310333,6.40129640542133,1.64453125,
mi,Saginaw,26145,43.3350287365687,-84.0531870388881,95424,6609,6.9,5892,6.2,5932,6.2,5972,6.3,-717,-10.8,5.11637347767253,1.44630281690141,6.39375424304141,2.3145710394916,
mi,St. Clair,26147,42.9311219743098,-82.66436772383,76409,9479,12.4,6139,8,6278,8.2,6418,8.4,-3340,-35.2,5.0947359611683,1.64034341504273,6.62013357224304,1.99198227661146,
mi,St. Joseph,26149,41.9144142465629,-85.5277446789419,35443,1064,3,3148,8.9,3190,9,3232,9.1,2084,195.9,6.09123039540535,1.65028355387524,7.21982210927573,4.91259398496241,
mi,Sanilac,26151,43.4433116084563,-82.6457538571445,30988,221,0.7,2760,8.9,2793,9,2826,9.1,2539,1148.9,6.28715023091551,1.62804956757455,7.23224637681159,4.45701357466063,
mi,Shiawassee,26155,42.9537338684189,-84.1467311037432,32220,1203,3.7,2490,7.7,2514,7.8,2537,7.9,1287,107,5.53458138325533,1.54127870887647,6.65461847389558,5.39650872817955,
mi,Tuscola,26157,43.4913425332761,-83.439868574405,36073,1410,3.9,2575,7.1,2597,7.2,2619,7.3,1165,82.6,5.6419091967404,1.552684833532,7.02873786407767,3.82765957446809,
mi,Van Buren,26159,42.2851055820478,-86.3064148915296,49563,1735,3.5,3310,6.7,3394,6.8,3477,7,1575,90.8,5.75768911055694,1.46191715594294,6.74712990936556,3.38386167146974,
mi,Washtenaw,26161,42.253225348634,-83.8387705109383,122628,1868,1.5,5395,4.4,5592,4.6,5788,4.7,3527,188.8,5.49571126211429,1.32910917571843,6.81556997219648,3.46627408993576,
mi,Wayne,26163,42.2847454780366,-83.2611328713946,818943,17947,2.2,46609,5.7,48428,5.9,50246,6.1,28662,159.7,4.74840149159686,1.44310654099247,6.11345448303976,3.27848665515128,
mi,Wexford,26165,44.338366811543,-85.5784138136672,24877,584,2.3,1711,6.9,1746,7,1780,7.2,1127,193,5.82928679817906,1.51171765084214,7.0905902980713,2.0513698630137,
co,Adams,8001,39.8736400759471,-104.33780173217,165297,1784,1.1,4447,2.7,4552,2.8,4657,2.8,2663,149.3,4.98873955684708,1.19929581299116,6.31774229817855,3.57118834080717,
co,Alamosa,8003,37.5728931402209,-105.788288196929,14319,275,1.9,562,3.9,568,4,575,4,287,104.4,5.19490586932447,1.26454361338082,6.30071174377224,1.62181818181818,
co,Arapahoe,8005,39.6497750644024,-104.339235440332,218437,1267,0.6,4306,2,4405,2,4504,2.1,3039,239.9,5.02287056496477,1.14897201481434,6.35578262888992,3.9147592738753,
co,Archuleta,8007,37.1936094383115,-107.048288331283,18535,470,2.5,1793,9.7,1816,9.8,1838,9.9,1323,281.5,6.75850043591979,1.71270569193418,7.64919129949805,5.69148936170213,
co,Baca,8009,37.3191788007632,-102.560476646152,621,0,0,70,11.3,70,11.3,69,11.1,70,Inf,6.97368421052632,1.73107890499195,7.31428571428571,,
co,Boulder,8013,40.0924597732642,-105.357705676141,112553,3871,3.4,7436,6.6,7626,6.8,7815,6.9,3565,92.1,5.52386193883167,1.51121693779819,6.94499731038193,4.0906742443813,
co,Broomfield,8014,39.9541357848134,-105.05266485805,25356,122,0.5,366,1.4,378,1.5,389,1.5,244,200,4.8437917222964,1.11354314560656,6.24043715846995,3.9016393442623,
co,Chaffee,8015,38.7469030854391,-106.194066665223,16472,718,4.4,1684,10.2,1702,10.3,1719,10.4,966,134.5,6.47810218978102,1.72899465760078,7.37589073634204,3.95682451253482,
co,Cheyenne,8017,38.8279397206567,-102.603395823903,4612,62,1.3,394,8.5,392,8.5,391,8.5,332,535.5,6.30184804928131,1.55984388551605,7.00510204081633,1.2258064516129,
co,Clear Creek,8019,39.6891022290385,-105.644358641297,14931,552,3.7,2489,16.7,2510,16.8,2530,16.9,1937,350.9,7.71713573209833,2.26280892103677,8.23342707914825,6.88768115942029,
co,Conejos,8021,37.2006875345276,-106.191627954603,8156,40,0.5,949,11.6,966,11.8,983,12.1,909,2272.5,5.1439205955335,1.81902893575282,6.463645943098,1.675,
co,Costilla,8023,37.2779522734875,-105.42824970613,46312,125,0.3,3799,8.2,3828,8.3,3858,8.3,3674,2939.2,5.67544843049327,1.5403135256521,6.62832324295867,3.744,
co,Custer,8027,38.1086779002875,-105.367471780572,8889,116,1.3,937,10.5,937,10.5,937,10.5,821,707.8,7.1764192139738,1.79559005512431,7.96051227321238,5.53448275862069,
co,Delta,8029,38.8613737904583,-107.862876813186,18569,358,1.9,1239,6.7,1256,6.8,1273,6.9,881,246.1,5.83647798742138,1.45554418654747,6.81033091202583,4.49441340782123,
co,Denver,8031,39.7621646092211,-104.875801468678,186831,1449,0.8,5061,2.7,5192,2.8,5324,2.8,3612,249.3,4.67244611059044,1.20973500115077,6.06105512744517,4.12146307798482,
co,Dolores,8033,37.7516108066091,-108.517265273631,3714,107,2.9,319,8.6,324,8.7,328,8.8,212,198.1,6.76726342710998,1.60716208939149,7.52037617554859,5.83177570093458,
co,Douglas,8035,39.3297238778329,-104.929559257751,141854,672,0.5,4168,2.9,4198,3,4227,3,3496,520.2,5.93922834906442,1.21027253373187,7.02063339731286,4.72767857142857,
co,Eagle,8037,39.6278256160262,-106.695299258405,23825,488,2,3664,15.4,3706,15.6,3747,15.7,3176,650.8,6.74000423101333,2.13884575026233,7.65693231441048,6.70491803278689,
co,Elbert,8039,39.2865595020802,-104.135889836164,13139,238,1.8,812,6.2,809,6.2,806,6.1,574,241.2,6.53884964682139,1.41776390897329,7.21674876847291,3.57142857142857,
co,El Paso,8041,38.8320890947592,-104.525584561672,249847,3118,1.2,16328,6.5,16236,6.5,16143,6.5,13210,423.7,5.75417920427951,1.45531065011787,6.78956393924547,4.66164207825529,
co,Fremont,8043,38.4729724659032,-105.439657053584,28422,2052,7.2,3022,10.6,3039,10.7,3056,10.8,970,47.3,6.19279408255786,1.7657096615298,7.24189278623428,3.46783625730994,
co,Garfield,8045,39.5993071790357,-107.903956153772,27455,610,2.2,2419,8.8,2473,9,2527,9.2,1809,296.6,6.62167938931298,1.67058823529412,7.70318313352625,3.9655737704918,
co,Gilpin,8047,39.8575581465562,-105.522531459312,8807,176,2,1161,13.2,1166,13.2,1172,13.3,985,559.7,8.71031096563011,2.06983081639605,8.98535745047373,7.28409090909091,
co,Grand,8049,40.1026149440677,-106.118358313463,21312,171,0.8,2030,9.5,2049,9.6,2068,9.7,1859,1087.1,6.09380725540491,1.65226163663664,6.89014778325123,4.04093567251462,
co,Gunnison,8051,38.6667977063671,-107.031700113774,17633,849,4.8,2315,13.1,2342,13.3,2369,13.4,1466,172.7,6.29128277817151,1.84682130096977,6.89460043196544,3.85983510011779,
co,Huerfano,8055,37.6846796380698,-104.960584533837,13475,819,6.1,1344,10,1348,10,1353,10,525,64.1,6.73027420257415,1.75992578849722,7.82738095238095,3.08424908424908,
co,Jefferson,8059,39.5864284096113,-105.250466816817,234707,4763,2,10469,4.5,10736,4.6,11003,4.7,5706,119.8,5.98882269851993,1.34610386567082,7.37291049765976,4.31681713205963,
co,Kit Carson,8063,39.3054413251493,-102.602887420155,9518,0,0,622,6.5,620,6.5,617,6.5,622,Inf,6.6420233463035,1.45702878756041,7.40996784565916,,
co,Lake,8065,39.202379470514,-106.344837734303,8538,109,1.3,335,3.9,350,4.1,365,4.3,226,207.3,5.81835564053537,1.29515108924807,7.02686567164179,2.3394495412844,
co,Larimer,8069,40.6664172247707,-105.461144451724,155371,2248,1.4,9873,6.4,10046,6.5,10220,6.6,7625,339.2,5.4994309673555,1.4834750371691,6.91107059657652,5.11565836298932,
co,Las Animas,8071,37.3158384919188,-104.038699840468,14142,399,2.8,1415,10,1412,10,1409,10,1016,254.6,7.25044510385757,1.74473200395984,7.96749116607774,4.01754385964912,
co,Lincoln,8073,38.9880685586291,-103.513965366514,3585,34,0.9,362,10.1,360,10,358,10,328,964.7,6.21097046413502,1.68898186889819,7.06629834254144,3.73529411764706,
co,Logan,8075,40.7246687187568,-103.110095730707,12096,3291,27.2,1034,8.5,1030,8.5,1026,8.5,-2257,-68.6,4.81129343629344,1.65286044973545,6.31914893617021,1.92403524764509,
co,Mesa,8077,39.0182904957627,-108.466440182542,75461,1168,1.5,2725,3.6,2780,3.7,2834,3.8,1557,133.3,5.20939457202505,1.26719762526338,6.49908256880734,5,
co,Mineral,8079,37.6689956824948,-106.924094646339,3113,158,5.1,556,17.9,564,18.1,572,18.4,398,251.9,6.4647676161919,2.17089624156762,7.00719424460432,5.70886075949367,
co,Moffat,8081,40.6184222203474,-108.207290604081,10241,90,0.9,1812,17.7,1816,17.7,1819,17.8,1722,1913.3,5.71542553191489,2.03876574553266,6.26048565121413,4.51111111111111,
co,Montezuma,8083,37.3384339704658,-108.59666982789,14714,533,3.6,1165,7.9,1176,8,1186,8.1,632,118.6,6.47160664819945,1.53697159168139,7.2068669527897,5.77673545966229,
co,Montrose,8085,38.4021560325117,-108.269451134683,25734,675,2.6,1617,6.3,1628,6.3,1638,6.4,942,139.6,4.80374161666078,1.4187456283516,5.98514851485149,3.61185185185185,
co,Morgan,8087,40.2627443785991,-103.809822238863,15048,2068,13.7,2342,15.6,2346,15.6,2349,15.6,274,13.2,5.07945552389997,1.85639287612972,5.6733561058924,3.47050290135397,
co,Otero,8089,37.9027017254017,-103.716445684674,11842,943,8,653,5.5,654,5.5,654,5.5,-290,-30.8,5.33076181292189,1.37924337105219,6.48698315467075,1.949098621421,
co,Ouray,8091,38.1554971802144,-107.769316820324,5877,110,1.9,619,10.5,630,10.7,642,10.9,509,462.7,6.24519774011299,1.78985877148205,7.47334410339257,4.50909090909091,
co,Park,8093,39.1193028607925,-105.71717471636,39905,511,1.3,3029,7.6,3046,7.6,3062,7.7,2518,492.8,7.09883720930233,1.55203608570355,7.79762297788049,4.47749510763209,
co,Phillips,8095,40.5938843196692,-102.357579600681,4176,46,1.1,441,10.6,435,10.4,429,10.3,395,858.7,5.42789223454834,1.66906130268199,6.34240362811791,5.52173913043478,
co,Pitkin,8097,39.2171057454868,-106.916577749019,16390,500,3.1,1814,11.1,1878,11.5,1943,11.9,1314,262.8,6.38421955403087,1.76607687614399,7.15214994487321,5.57,
co,Prowers,8099,37.9551831882426,-102.393348976438,9438,622,6.6,2046,21.7,2048,21.7,2049,21.7,1424,228.9,5.15374921235035,2.39690612417885,6.10191082802548,4.29742765273312,
co,Saguache,8109,38.0805527550579,-106.281555563396,14929,23,0.2,1666,11.2,1697,11.4,1728,11.6,1643,7143.5,5.59526536846125,1.8061491057673,6.8265306122449,6.17391304347826,
co,San Juan,8111,37.7640430779396,-107.676147269357,2148,56,2.6,302,14.1,304,14.2,307,14.3,246,439.3,4.98713235294118,2.00977653631285,6.35099337748344,4.32142857142857,
co,San Miguel,8113,38.0037403986931,-108.405922129895,7339,399,5.4,848,11.6,856,11.7,864,11.8,449,112.5,7.11538461538462,1.84493800245265,7.81485849056604,4.23057644110276,
co,Sedgwick,8115,40.8759049725147,-102.351791199024,3042,11,0.4,235,7.7,234,7.7,234,7.7,224,2036.4,4.82574257425743,1.63510848126233,6.65531914893617,1.27272727272727,
co,Summit,8117,39.6341708059888,-106.116379137222,20425,425,2.1,2754,13.5,2824,13.8,2894,14.2,2329,548,6.1108527131783,1.96837209302326,7.10893246187364,5.30588235294118,
co,Teller,8119,38.8821720459997,-105.161826392782,28120,418,1.5,2111,7.5,2133,7.6,2155,7.7,1693,405,7.19537073362103,1.56159317211949,7.91804831833254,4.33732057416268,
co,Weld,8123,40.5548298992378,-104.392531358175,140965,3223,2.3,7286,5.2,7350,5.2,7415,5.3,4063,126.1,4.96953838943998,1.36052920937821,6.15413121054076,2.97517840521253,
in,Adams,18001,40.7456599313334,-84.9366547188895,19924,1049,5.3,1140,5.7,1174,5.9,1207,6.1,91,8.7,5.68017767906719,1.42305761895202,6.98421052631579,3.56530028598665,
in,Allen,18003,41.0908708809539,-85.0665620405298,156318,5097,3.3,8175,5.2,8332,5.3,8489,5.4,3078,60.4,5.25223613595707,1.44097928581481,6.47425076452599,4.61192858544242,
in,Bartholomew,18005,39.2059705720706,-85.8976029731582,37274,3968,10.6,2847,7.6,2918,7.8,2989,8,-1121,-28.3,5.83730970234038,1.57114879004132,7.07200561995083,3.62449596774194,
in,Benton,18007,40.6062584629767,-87.3109060180097,8015,79,1,652,8.1,668,8.3,685,8.5,573,725.3,6.3162100456621,1.58103555832813,7.32515337423313,4.63291139240506,
in,Blackford,18009,40.4736005521035,-85.3248199121707,8801,200,2.3,576,6.5,588,6.7,599,6.8,376,188,6.42493297587131,1.45983410976025,7.30555555555556,5.935,
in,Boone,18011,40.0508013852453,-86.4686962148729,33957,1356,4,2425,7.1,2458,7.2,2491,7.3,1069,78.8,5.97584124245039,1.50949730541567,7.07298969072165,4.99410029498525,
in,Brown,18013,39.1962111615649,-86.2273748047997,13537,1117,8.3,1836,13.6,1848,13.7,1860,13.7,719,64.4,7.86400768861124,2.05518209352146,8.41394335511983,6.11459265890779,
in,Carroll,18015,40.5828585610496,-86.5634841334203,20973,2253,10.7,3932,18.7,3960,18.9,3987,19,1679,74.5,7.80752165645468,2.53626090688028,8.67497456765005,6.97470039946738,
in,Cass,18017,40.7614914971586,-86.3459465591946,25207,1033,4.1,5778,22.9,5821,23.1,5864,23.3,4745,459.3,7.11687579303539,2.7212282302535,7.93146417445483,8.12003872216844,
in,Clark,18019,38.4771945498283,-85.7072716389393,58835,4123,7,4875,8.3,4999,8.5,5123,8.7,752,18.2,5.76800940899735,1.55123650888077,6.76225641025641,3.86926994906621,
in,Clay,18021,39.3927278538193,-87.1157584406165,23142,2068,8.9,2835,12.3,2867,12.4,2899,12.5,767,37.1,7.01788420733556,1.85787745225132,7.55908289241623,5.69003868471954,
in,Clinton,18023,40.3016905964396,-86.4751595355036,25212,571,2.3,2070,8.2,2122,8.4,2175,8.6,1499,262.5,6.08444902162719,1.58745835316516,7.15652173913044,5.5061295971979,
in,Crawford,18025,38.2924145670038,-86.4517083941395,12586,1105,8.8,1950,15.5,1956,15.5,1962,15.6,845,76.5,7.86784550953932,2.17265215318608,8.29128205128205,6.78914027149321,
in,Daviess,18027,38.7024099657555,-87.0720684607686,20472,384,1.9,2225,10.9,2268,11.1,2311,11.3,1841,479.4,6.37165298107819,1.73495506057054,7.0714606741573,5.54947916666667,
in,Dearborn,18029,39.1451924877719,-84.9732576443274,31370,1446,4.6,2493,7.9,2550,8.1,2608,8.3,1047,72.4,6.59461756373938,1.62955052598024,7.75932611311673,5.88381742738589,
in,Decatur,18031,39.306999934346,-85.5011430488971,17594,643,3.7,1282,7.3,1298,7.4,1314,7.5,639,99.4,7.02316602316602,1.53199954529953,7.76053042121685,4.58475894245723,
in,DeKalb,18033,41.3975800161261,-84.9990842820237,32479,1066,3.3,2330,7.2,2373,7.3,2416,7.4,1264,118.6,5.68394787912393,1.52018227162166,6.85364806866953,4.68480300187617,
in,Delaware,18035,40.2275253245421,-85.3968992892849,57475,2557,4.4,3131,5.4,3300,5.7,3468,6,574,22.4,5.10130813953488,1.49094388864724,6.74097732353881,4.42980054751662,
in,Dubois,18037,38.36427643317,-86.8798021177475,34448,2092,6.1,3105,9,3146,9.1,3188,9.3,1013,48.4,6.9144527098831,1.64624941941477,7.61964573268921,5.04827915869981,
in,Elkhart,18039,41.5973844863556,-85.8587552832752,88323,3231,3.7,7762,8.8,7937,9,8112,9.2,4531,140.2,5.95070707070707,1.69364718136839,7.39654728162845,5.40420922315073,
in,Fayette,18041,39.6400558465496,-85.178724960821,14011,709,5.1,1065,7.6,1088,7.8,1110,7.9,356,50.2,6.24900133155792,1.56270073513668,7.45446009389671,4.48377997179126,
in,Floyd,18043,38.3189286349823,-85.9068307195057,41101,1499,3.6,2917,7.1,2996,7.3,3075,7.5,1418,94.6,5.95909090909091,1.47779859370818,6.87007199177237,4.16611074049366,
in,Fountain,18045,40.1208707645768,-87.2419916981737,14108,486,3.4,1243,8.8,1262,8.9,1282,9.1,757,155.8,6.89105793450882,1.66309895094982,7.79967819790829,5.79012345679012,
in,Franklin,18047,39.4148645047375,-85.0602848370703,16796,765,4.6,1764,10.5,1782,10.6,1800,10.7,999,130.6,7.71175059952038,1.83317456537271,8.47732426303855,4.95032679738562,
in,Fulton,18049,41.0469632989259,-86.2635836849422,16429,539,3.3,1213,7.4,1232,7.5,1252,7.6,674,125,6.2726723095526,1.53082963053138,7.26710634789777,5.58627087198516,
in,Gibson,18051,38.3118253710402,-87.5845943679774,21025,1979,9.4,2045,9.7,2076,9.9,2108,10,66,3.3,6.15395236451502,1.71015457788347,7.35403422982885,4.32844871147044,
in,Grant,18053,40.5158445872205,-85.6547259040764,38154,1272,3.3,3021,7.9,3110,8.2,3200,8.4,1749,137.5,5.80450336700337,1.59839073229543,7.01555776233035,6.11477987421384,
in,Greene,18055,39.0363277254334,-86.9620463650015,25220,1618,6.4,2114,8.4,2140,8.5,2165,8.6,496,30.7,7.15529865125241,1.63334655035686,7.95695364238411,4.9283065512979,
in,Hamilton,18057,40.0724894820562,-86.0520142581947,132279,3341,2.5,5250,4,5426,4.1,5601,4.2,1909,57.1,5.4483646953405,1.3002366210812,6.80838095238095,4.39179886261598,
in,Hancock,18059,39.8235499947088,-85.7732376437792,37751,1678,4.4,1930,5.1,1968,5.2,2006,5.3,252,15,5.73553162853297,1.37281131625652,6.98134715025907,4.20798569725864,
in,Harrison,18061,38.195122878668,-86.1113109492835,26819,1275,4.8,2499,9.3,2524,9.4,2548,9.5,1224,96,7.49733510992672,1.72728289645401,8.27891156462585,7.54666666666667,
in,Hendricks,18063,39.7695173752826,-86.5099758760815,73863,1278,1.7,3084,4.2,3140,4.3,3195,4.3,1806,141.3,5.91316648531012,1.30564694095826,7.12483787289235,4.25430359937402,
in,Henry,18065,39.9310397360685,-85.396435374196,29168,889,3,1907,6.5,1963,6.7,2019,6.9,1018,114.5,6.3716323296355,1.46482446516731,7.30309386470897,4.81889763779528,
in,Howard,18067,40.4835856225249,-86.1169307298404,43502,1012,2.3,2797,6.4,2906,6.7,3016,6.9,1785,176.4,5.58929374718848,1.46903590639511,6.82016446192349,5.44861660079051,
in,Huntington,18069,40.8292399570704,-85.488172278064,22526,661,2.9,2407,10.7,2438,10.8,2468,11,1746,264.1,6.20345664038811,1.7618307733286,7.2197756543415,6.42208774583964,
in,Jackson,18071,38.906417488356,-86.0375413468077,25597,3119,12.2,2955,11.5,2988,11.7,3021,11.8,-164,-5.3,6.50734908136483,1.81974450130875,7.35871404399323,4.56813081115742,
in,Jasper,18073,41.0229983045553,-87.1161212418816,21357,1390,6.5,1991,9.3,2044,9.6,2098,9.8,601,43.2,5.3937578814628,1.65257292690921,6.54645906579608,3.40791366906475,
in,Jay,18075,40.4379183735093,-85.0056353190682,15696,740,4.7,1360,8.7,1395,8.9,1430,9.1,620,83.8,5.27996936039832,1.71196483180428,7.04411764705882,5.51621621621622,
in,Jefferson,18077,38.7858226617918,-85.4385728829918,19735,1201,6.1,2308,11.7,2328,11.8,2347,11.9,1107,92.2,7.79604772557793,1.92358753483658,8.46143847487002,8.08659450457952,
in,Jennings,18079,38.9969300555227,-85.6280646000645,19978,660,3.3,1483,7.4,1490,7.5,1497,7.5,823,124.7,7.53012746234067,1.56417058764641,8.20768712070128,5.88787878787879,
in,Johnson,18081,39.489970750456,-86.1016367927433,64840,2972,4.6,2813,4.3,2888,4.5,2964,4.6,-159,-5.3,5.57977082415161,1.32052745219001,6.85993601137576,3.28230148048452,
in,Knox,18083,38.689089856401,-87.4180084465563,30155,2378,7.9,3674,12.2,3795,12.6,3916,13,1296,54.5,5.14177812745869,1.87285690598574,6.51442569406641,4.70353238015139,
in,Kosciusko,18085,41.2440973380013,-85.8607176827985,51804,4485,8.7,4552,8.8,4624,8.9,4696,9.1,67,1.5,5.75643991979022,1.59524361053201,6.72188049209139,3.40490523968785,
in,LaGrange,18087,41.6426062358956,-85.4264979094136,26975,2583,9.6,2091,7.8,2136,7.9,2180,8.1,-492,-19,5.4994068801898,1.56244670991659,6.71257771401244,3.09020518776616,
in,Lake,18089,41.4722121306214,-87.3763856005772,237448,9991,4.2,19302,8.1,20258,8.5,21215,8.9,9311,93.2,4.58391228109116,1.68000572756983,6.03916692570718,2.95656090481433,
in,LaPorte,18091,41.5490215571718,-86.7423662187023,65018,2674,4.1,5523,8.5,5732,8.8,5940,9.1,2849,106.5,5.55671902268761,1.60237165092744,6.66395075140322,3.04562453253553,
in,Lawrence,18093,38.8411628915135,-86.483451130916,30547,1048,3.4,2481,8.1,2505,8.2,2529,8.3,1433,136.7,7.1837891927952,1.60690084132648,7.91011688835147,5.78053435114504,
in,Madison,18095,40.1616556249965,-85.7193451636741,83210,3338,4,5833,7,6002,7.2,6170,7.4,2495,74.7,5.6125116713352,1.53431077995433,6.96931253214469,5.70910724985021,
in,Marion,18097,39.7817096849,-86.1384716690441,341229,16080,4.7,18525,5.4,18868,5.5,19212,5.6,2445,15.2,5.06440432049009,1.44330640127305,6.48518218623482,3.74179104477612,
in,Marshall,18099,41.3248489609961,-86.2617612927079,32057,1218,3.8,2139,6.7,2184,6.8,2230,7,921,75.6,6.06966809069997,1.48123654739994,7.16970546984572,4.35960591133005,
in,Martin,18101,38.7080111867405,-86.8030654721169,9910,1225,12.4,1649,16.6,1655,16.7,1661,16.8,424,34.6,7.67598684210526,2.22875882946519,8.10309278350515,6.26040816326531,
in,Miami,18103,40.7695040100148,-86.0450230749252,23031,859,3.7,5545,24.1,5578,24.2,5610,24.4,4686,545.5,6.29788388497016,2.69580131127611,7.09251577998197,6.46332945285215,
in,Monroe,18105,39.1609175597811,-86.5231372075804,59234,2172,3.7,4098,6.9,4156,7,4213,7.1,1926,88.7,6.81851779809376,1.50499713002667,7.64543679843826,4.49953959484346,
in,Montgomery,18107,40.0403785242876,-86.8932997985671,22998,609,2.6,1817,7.9,1842,8,1866,8.1,1208,198.4,6.63026260942059,1.58731194016871,7.67253714914695,5.35796387520526,
in,Morgan,18109,39.4815483457805,-86.4462121420816,41676,2212,5.3,3970,9.5,4044,9.7,4118,9.9,1758,79.5,6.38998372807811,1.71532776658029,7.55088161209068,5.05198915009042,
in,Newton,18111,40.9558477435746,-87.3975365942558,11205,1019,9.1,1233,11,1260,11.2,1287,11.5,214,21,5.47919876733436,1.77831325301205,6.65936739659367,2.74386653581943,
in,Noble,18113,41.3985995058672,-85.417466732116,26733,2066,7.7,1439,5.4,1456,5.4,1472,5.5,-627,-30.3,5.66238938053097,1.39415703437699,6.83530229325921,2.69119070667957,
in,Ohio,18115,38.9500945901462,-84.965043122759,3189,252,7.9,378,11.9,388,12.2,399,12.5,126,50,5.9213313161876,2.02006898714331,7.53174603174603,6.36507936507937,
in,Orange,18117,38.5417788856705,-86.4950692821225,21892,1611,7.4,2992,13.7,3013,13.8,3034,13.9,1381,85.7,7.45945197896485,2.06605152567148,8.24966577540107,5.47734326505276,
in,Owen,18119,39.3128100482592,-86.8376542268401,17537,1136,6.5,1890,10.8,1903,10.9,1916,10.9,754,66.4,7.43157443157443,1.85487825739864,8.32328042328042,6.29489436619718,
in,Parke,18121,39.7736200492102,-87.2063672164146,19424,1432,7.4,2079,10.7,2092,10.8,2104,10.8,647,45.2,6.85139543312795,1.83113673805601,7.95767195767196,4.981843575419,
in,Perry,18123,38.07964913518,-86.6380317986216,16585,1495,9,2254,13.6,2280,13.7,2307,13.9,759,50.8,7.23399558498896,2.02164606572204,7.96406388642413,5.66354515050167,
in,Pike,18125,38.3987832355319,-87.2321643084688,16588,946,5.7,1987,12,2002,12.1,2016,12.2,1041,110,7.38249452954048,1.8791897757415,7.96628082536487,5.16279069767442,
in,Porter,18127,41.508838294292,-87.0733191355684,79686,1933,2.4,4976,6.2,5114,6.4,5253,6.6,3043,157.4,5.48582943317733,1.43301207238411,6.60188906752412,2.445421624418,
in,Posey,18129,38.0218915536444,-87.8684711837937,19443,2604,13.4,2087,10.7,2116,10.9,2145,11,-517,-19.9,5.86575021936239,1.8556292753176,7.32801161103048,4.38056835637481,
in,Pulaski,18131,41.0418321080512,-86.6987792623809,17374,1472,8.5,2286,13.2,2310,13.3,2335,13.4,814,55.3,6.35128286347799,1.9723725106481,7.45800524934383,5.17798913043478,
in,Putnam,18133,39.6662617905272,-86.8449997676694,25548,1153,4.5,2124,8.3,2150,8.4,2177,8.5,971,84.2,7.55006031363088,1.63762329732269,8.21139359698682,5.6877710320902,
in,Randolph,18135,40.1576395560912,-85.0113103960204,18049,789,4.4,1386,7.7,1442,8,1499,8.3,597,75.7,6.18937401367701,1.54656767687961,7.15728715728716,4.33460076045627,
in,Ripley,18137,39.1034546728229,-85.2623863718848,17389,336,1.9,1088,6.3,1105,6.4,1122,6.5,752,223.8,7.85957792207792,1.48599689458853,8.40257352941176,5.41666666666667,
in,Rush,18139,39.6199484364248,-85.4657611777144,11905,567,4.8,888,7.5,910,7.6,933,7.8,321,56.6,5.77326801959412,1.57295254094918,7.30855855855856,3.93827160493827,
in,St. Joseph,18141,41.6167180079839,-86.289857697273,118800,1377,1.2,11573,9.7,11872,10,12171,10.2,10196,740.5,5.68725562717954,1.74672558922559,7.03032921455111,3.95933188090051,
in,Scott,18143,38.6850699522826,-85.7474680991926,14691,709,4.8,1089,7.4,1100,7.5,1111,7.6,380,53.6,7.15301391035549,1.54196446804166,7.82460973370064,4.475317348378,
in,Shelby,18145,39.5236921944183,-85.7917003981984,29181,2558,8.8,2983,10.2,3030,10.4,3076,10.5,425,16.6,5.46057640021751,1.84332270998252,7.08649011062689,4.62470680218921,
in,Spencer,18147,38.0140589628901,-87.0077059122438,22680,3079,13.6,3384,14.9,3434,15.1,3483,15.4,305,9.9,6.43099598034837,2.07231040564374,7.35519287833828,5.12439103605067,
in,Starke,18149,41.280926437704,-86.647648566074,18982,1109,5.8,1187,6.3,1225,6.5,1263,6.7,78,7,5.29627766599598,1.44995258666105,6.48188711036226,3.09467989179441,
in,Steuben,18151,41.6438678781433,-85.0007648541928,38707,2192,5.7,2495,6.4,2529,6.5,2563,6.6,303,13.8,5.65038961038961,1.46255199317953,6.82685370741483,2.86085766423358,
in,Sullivan,18153,39.0888346866668,-87.41469039779,17566,427,2.4,1414,8,1428,8.1,1442,8.2,987,231.1,6.98524203069658,1.57719458043949,7.63154172560113,4.69320843091335,
in,Switzerland,18155,38.8261607682497,-85.0369979159852,7873,853,10.8,1364,17.3,1373,17.4,1382,17.6,511,59.9,6.78843302026693,2.48736186968119,8.30645161290323,7.66705744431419,
in,Tippecanoe,18157,40.3886187334062,-86.8940974128082,65702,1845,2.8,4558,6.9,4694,7.1,4830,7.4,2713,147,5.60213333333333,1.52534169431676,6.9752084247477,5.01409214092141,
in,Tipton,18159,40.3113452390999,-86.0518589755777,13774,1112,8.1,1482,10.8,1514,11,1547,11.2,370,33.3,5.15857142857143,1.84536082474227,6.60998650472335,5.00539568345324,
in,Union,18161,39.625545844212,-84.9251420294638,6349,74,1.2,399,6.3,404,6.4,409,6.4,325,439.2,7.77901785714286,1.478343046149,8.32832080200501,4.51351351351351,
in,Vanderburgh,18163,38.0249578622318,-87.5857849633314,78692,5183,6.6,5423,6.9,5691,7.2,5959,7.6,240,4.6,4.71428571428571,1.43778274792863,5.95260925686889,3.34150106116149,
in,Vermillion,18165,39.8538114573868,-87.4639782840983,12207,856,7,1242,10.2,1258,10.3,1273,10.4,386,45.1,6.4947172156619,1.72425657409683,7.37761674718197,5.15654205607477,
in,Vigo,18167,39.4306386000654,-87.3899644539332,59790,4008,6.7,6732,11.3,6911,11.6,7090,11.9,2724,68,5.29280439635927,1.83615989295869,6.62046939988117,4.4935129740519,
in,Wabash,18169,40.845693005788,-85.7940056738606,19145,859,4.5,1895,9.9,1918,10,1942,10.1,1036,120.6,6.67874592833876,1.72849307913293,7.60105540897098,6.25844004656578,
in,Warren,18171,40.3469033296891,-87.3533144840026,10378,338,3.3,1035,10,1043,10.1,1051,10.1,697,206.2,7.35502471169687,1.74339949894007,8.00772946859904,5.9792899408284,
in,Warrick,18173,38.0921662434174,-87.2720537446661,37744,3525,9.3,2894,7.7,2994,7.9,3095,8.2,-631,-17.9,6.17649868641032,1.5742369648156,7.31478921907395,3.39460992907801,
in,Washington,18175,38.599984173524,-86.1053059022654,18092,805,4.4,1629,9,1642,9.1,1654,9.1,824,102.4,7.46534653465347,1.68577271722308,8.15776550030694,5.36770186335404,
in,Wayne,18177,39.8644164614474,-85.0098761362692,35072,1294,3.7,2176,6.2,2230,6.4,2284,6.5,882,68.2,6.56421202419068,1.44596829379562,7.44852941176471,4.97295208655332,
in,Wells,18179,40.7291866469068,-85.2212198575699,16281,537,3.3,1019,6.3,1052,6.5,1085,6.7,482,89.8,5.67966211825861,1.44235612063141,6.81844946025515,4.25884543761639,
in,White,18181,40.7497715931691,-86.8654694015714,22423,1331,5.9,4995,22.3,5028,22.4,5060,22.6,3664,275.3,7.53379056540649,2.74191678187575,8.33673673673674,8.51314800901578,
in,Whitley,18183,41.1393753356298,-85.5051179350213,19778,702,3.5,1707,8.6,1729,8.7,1751,8.9,1005,143.2,6.28491137051448,1.61806047123066,7.25014645577036,5.07407407407407,
mn,Aitkin,27001,46.6082572917609,-93.4154290883407,42401,3618,8.5,2924,6.9,2954,7,2983,7,-694,-19.2,6.16943521594684,1.47706422018349,7.06805745554036,2.62714206744058,
mn,Anoka,27003,45.2732419578629,-93.2464674593769,132899,5257,4,8510,6.4,8562,6.4,8615,6.5,3253,61.9,5.44775600944838,1.48172672480606,6.72021151586369,2.39299980977744,
mn,Becker,27005,46.9346483657317,-95.6739235429892,33176,33,0.1,2875,8.7,2902,8.7,2930,8.8,2842,8612.1,6.18355739400207,1.60435254400772,7.0935652173913,2.51515151515152,
mn,Beltrami,27007,47.973782902798,-94.9376544511232,39154,4,0,2441,6.2,2481,6.3,2521,6.4,2437,60925,5.9435736677116,1.44304541043061,6.97910692339205,1.5,
mn,Benton,27009,45.699135862096,-93.9988297845357,19825,981,4.9,1913,9.6,1932,9.7,1950,9.8,932,95,6.63987138263666,1.70779319041614,7.58808154730789,6.1855249745158,
mn,Big Stone,27011,45.4260991444675,-96.4109184040171,7186,493,6.9,487,6.8,488,6.8,488,6.8,-6,-1.2,6.10823170731707,1.46632340662399,7.06981519507187,2.23732251521298,
mn,Blue Earth,27013,44.0345856949297,-94.0670264540998,32283,436,1.4,2411,7.5,2432,7.5,2452,7.6,1975,453,5.70063518365093,1.52724344082025,6.86395686437163,3.18807339449541,
mn,Brown,27015,44.2421376863832,-94.7275818569373,17661,993,5.6,1378,7.8,1390,7.9,1402,7.9,385,38.8,5.95283018867925,1.53507728894174,6.89477503628447,2.49144008056395,
mn,Carlton,27017,46.5924013919686,-92.6770526205196,33707,247,0.7,1754,5.2,1772,5.3,1791,5.3,1507,610.1,6.33347245409015,1.37912006408164,7.37742303306728,2.90283400809717,
mn,Carver,27019,44.8207594334158,-93.8025860062992,42999,641,1.5,1940,4.5,1954,4.5,1969,4.6,1299,202.7,5.63601398601399,1.30835600827926,6.67371134020619,2.60218408736349,
mn,Cass,27021,46.949604131285,-94.3253490707849,47559,19,0,2852,6,2876,6,2899,6.1,2833,14910.5,6.35950303991541,1.42631258016359,7.31206171107994,2.78947368421053,
mn,Chippewa,27023,45.0223437548627,-95.5666870127126,11377,531,4.7,1188,10.4,1195,10.5,1202,10.6,657,123.7,5.87054833239118,1.75731739474378,7.00757575757576,3.07344632768362,
mn,Chisago,27025,45.5024730834068,-92.9083421523582,28526,837,2.9,1603,5.6,1608,5.6,1613,5.7,766,91.5,6.02939846223428,1.38981981350347,7.02620087336245,2.97610513739546,
mn,Clay,27027,46.8923435535277,-96.4906494763755,29407,1952,6.6,2854,9.7,2880,9.8,2907,9.9,902,46.2,5.19379037299437,1.68439487196926,6.45339873861247,3.20389344262295,
mn,Clearwater,27029,47.5776534848002,-95.3790237803884,9104,1,0,721,7.9,738,8.1,756,8.3,720,72000,6.02296650717703,1.57655975395431,7.14701803051318,1,
mn,Cook,27031,47.726652656917,-90.3860049778987,12523,0,0,840,6.7,846,6.8,853,6.8,840,Inf,6.83663833805477,1.49357182783678,7.72488038277512,,
mn,Cottonwood,27033,44.0071075263933,-95.1811530448812,10707,327,3.1,925,8.6,922,8.6,920,8.6,598,182.9,6.19787408013083,1.59372373213785,7.08756756756757,3.10703363914373,
mn,Crow Wing,27035,46.4823738278429,-94.0708780276795,80900,2939,3.6,5188,6.4,5239,6.5,5290,6.5,2249,76.5,6.15824964131994,1.44441285537701,7.0774865073246,2.71146648519905,
mn,Dakota,27037,44.6718806419363,-93.0654241926617,140601,1443,1,9047,6.4,9144,6.5,9240,6.6,7604,527,5.3753779987904,1.46308347735791,6.54161600530563,3.36798336798337,
mn,Dodge,27039,44.0225894660841,-92.8620540342543,11619,188,1.6,754,6.5,755,6.5,756,6.5,566,301.1,6.52332657200811,1.46871503571736,7.48275862068966,4.73936170212766,
mn,Douglas,27041,45.9337163348425,-95.4535236810324,31814,239,0.8,1638,5.1,1663,5.2,1688,5.3,1399,585.4,5.86386768447837,1.36050166593324,6.91208791208791,2.418410041841,
mn,Faribault,27043,43.6739283197385,-93.9479993397432,14932,219,1.5,1320,8.8,1322,8.9,1323,8.9,1101,502.7,6.36703682057276,1.61498794535226,7.24242424242424,2.42009132420091,
mn,Fillmore,27045,43.6739971692711,-92.0901672654192,19921,1044,5.2,2868,14.4,2874,14.4,2879,14.5,1824,174.7,7.02015186915888,2.03473721198735,7.6942119944212,6.1360153256705,
mn,Freeborn,27047,43.6738441803158,-93.34881585785,21642,505,2.3,2071,9.6,2082,9.6,2093,9.7,1566,310.1,6.07194504699928,1.6482302929489,6.917914051183,4.14455445544554,
mn,Goodhue,27049,44.4098464155262,-92.722590638316,28702,1086,3.8,3652,12.7,3652,12.7,3651,12.7,2566,236.3,6.97834017327861,1.91356003065988,7.66046002190581,4.79834254143646,
mn,Grant,27051,45.9340461669737,-96.012184098125,7481,100,1.3,729,9.7,732,9.8,734,9.8,629,629,6.190329218107,1.67437508354498,7.11659807956104,2.67,
mn,Hennepin,27053,45.0045756901341,-93.4768841061217,369928,5161,1.4,23912,6.5,24104,6.5,24296,6.6,18751,363.3,5.33784406016576,1.4584000129755,6.4905068584811,2.76496802945166,
mn,Houston,27055,43.6714440477217,-91.4928319425378,14941,945,6.3,1894,12.7,1906,12.8,1918,12.8,949,100.4,6.87309090909091,2.08098520848671,8.07391763463569,4.94391534391534,
mn,Hubbard,27057,47.1086298071705,-94.9166205963281,27823,2,0,1856,6.7,1884,6.8,1911,6.9,1854,92700,6.10991129965291,1.47622470617834,7.13846982758621,1,
mn,Isanti,27059,45.5614793412584,-93.295167218096,22638,2332,10.3,1259,5.6,1269,5.6,1279,5.6,-1073,-46,5.93717875499714,1.38188002473717,6.91580619539317,1.82204116638079,
mn,Itasca,27061,47.509525546756,-93.63200660584,68038,908,1.3,4625,6.8,4672,6.9,4720,6.9,3717,409.4,6.49130434782609,1.4826420529704,7.35848648648649,2.82599118942731,
mn,Jackson,27063,43.6741733016819,-95.1541129519377,10396,201,1.9,912,8.8,904,8.7,897,8.6,711,353.7,6.35611814345992,1.61052327818392,7.18311403508772,3.72636815920398,
mn,Kanabec,27065,45.9452167901628,-93.2934250568407,8615,97,1.1,551,6.4,556,6.5,560,6.5,454,468,6.30277777777778,1.44318049912943,7.16152450090744,3.82474226804124,
mn,Kandiyohi,27067,45.1523816426916,-95.0047416564524,28504,591,2.1,2093,7.3,2124,7.5,2156,7.6,1502,254.1,5.67670364500792,1.51764664608476,6.77353081700908,2.3824027072758,
mn,Kittson,27069,48.7766295652859,-96.7828440348935,9795,2022,20.6,1354,13.8,1372,14,1389,14.2,-668,-33,5.28404850746269,1.93772332822869,6.48462115528882,3.23986152324431,
mn,Koochiching,27071,48.2452683730049,-93.7833662764886,55967,835,1.5,2332,4.2,2360,4.2,2388,4.3,1497,179.3,6.40779467680608,1.30494755838262,7.44639794168096,2.97964071856287,
mn,Lac qui Parle,27073,44.9954869290675,-96.1734786585972,7913,578,7.3,830,10.5,834,10.5,839,10.6,252,43.6,5.91133455210238,1.67900922532541,6.69638554216868,3.16608996539792,
mn,Lake,27075,47.5231709980799,-91.4088486011237,46028,3,0,4261,9.3,4303,9.3,4345,9.4,4258,141933.3,7.24253144654088,1.690058225428,7.95986857545177,1.66666666666667,
mn,Lake of the Woods,27077,48.7712320482101,-94.9045742042881,8520,436,5.1,573,6.7,579,6.8,585,6.9,137,31.4,5.42857142857143,1.52394366197183,6.91258741258741,2.34633027522936,
mn,Le Sueur,27079,44.3714339355134,-93.7300728964641,19056,714,3.7,1420,7.5,1428,7.5,1437,7.5,706,98.9,5.84985563041386,1.52886230058774,6.94507042253521,2.93137254901961,
mn,Lincoln,27081,44.4125964167666,-96.267087307863,6583,117,1.8,480,7.3,482,7.3,485,7.4,363,310.3,6.4232633279483,1.50994987087954,7.26041666666667,1.76923076923077,
mn,Lyon,27083,44.4134915893336,-95.8389749014817,16111,474,2.9,1447,9,1458,9,1468,9.1,973,205.3,5.4353488372093,1.59189373719819,6.4326192121631,3.42194092827004,
mn,McLeod,27085,44.8235439356437,-94.2724202274954,20058,644,3.2,1539,7.7,1554,7.7,1570,7.8,895,139,5.68624772313297,1.51306211985243,6.61663417803769,3.20496894409938,
mn,Mahnomen,27087,47.3252360192359,-95.8090496342811,5740,121,2.1,611,10.6,618,10.8,625,10.9,490,405,6.27261306532663,1.73118466898955,7.13747954173486,4.04132231404959,
mn,Marshall,27089,48.3581259654878,-96.368474375277,9361,1143,12.2,1450,15.5,1453,15.5,1456,15.6,307,26.9,5.17460317460318,2.01143040273475,6.15172413793103,4.22134733158355,
mn,Martin,27091,43.6743620904218,-94.551070329744,15210,131,0.9,1158,7.6,1158,7.6,1158,7.6,1027,784,5.86119493059747,1.52958579881657,6.92487046632124,2.11450381679389,
mn,Meeker,27093,45.123115244955,-94.5273094654529,17876,860,4.8,1261,7.1,1270,7.1,1280,7.2,401,46.6,6.01951507983442,1.47482658312822,6.89611419508327,2.5546511627907,
mn,Mille Lacs,27095,45.9380407244613,-93.6300834590385,20672,1245,6,1075,5.2,1083,5.2,1091,5.3,-170,-13.7,6.24137931034483,1.35294117647059,7.09023255813954,2.35903614457831,
mn,Morrison,27097,46.0126176922702,-94.2684153060847,29735,813,2.7,2957,9.9,2982,10,3006,10.1,2144,263.7,6.07077833409194,1.74931898436186,7.34595874196821,4.42189421894219,
mn,Mower,27099,43.6714700417462,-92.7525135870944,22781,963,4.2,1511,6.6,1512,6.6,1512,6.6,548,56.9,5.89742451154529,1.48413151310302,7.05691594970218,4.35929387331256,
mn,Murray,27101,44.0221218387924,-95.7632752891373,6136,290,4.7,583,9.5,582,9.5,582,9.5,293,101,5.95955056179775,1.71936114732725,7.24528301886793,2.82758620689655,
mn,Nicollet,27103,44.3498732217053,-94.247399140979,16559,241,1.5,1172,7.1,1187,7.2,1202,7.3,931,386.3,5.04639175257732,1.75849990941482,6.77559726962457,2.43153526970954,
mn,Nobles,27105,43.6742401282655,-95.7533869311132,9207,221,2.4,615,6.7,610,6.6,606,6.6,394,178.3,6.49475065616798,1.45476268056913,7.2260162601626,3.5158371040724,
mn,Norman,27107,47.3264761641567,-96.4552777398333,9327,1925,20.6,1441,15.4,1455,15.6,1469,15.7,-484,-25.1,5.42283298097252,2.12147528680176,6.65857043719639,2.92883116883117,
mn,Olmsted,27109,44.003752507437,-92.4017709320414,63635,1211,1.9,4783,7.5,4784,7.5,4786,7.5,3572,295,5.83548606390211,1.55889054765459,7.07944804515994,4.90503715937242,
mn,Otter Tail,27111,46.4087959622434,-95.7080021514285,64118,8,0,5286,8.2,5344,8.3,5401,8.4,5278,65975,6.01093707804483,1.57879222683178,6.97162315550511,1.75,
mn,Pennington,27113,48.0662320513346,-96.0366682912226,9872,222,2.2,476,4.8,476,4.8,477,4.8,254,114.4,6.01038575667656,1.34207860615883,7.15756302521008,3.87387387387387,
mn,Pine,27115,46.1207670650242,-92.7412705154142,30658,1813,5.9,1805,5.9,1818,5.9,1830,6,-8,-0.4,6.25415282392027,1.4126818448692,7.17451523545706,3.32322118036404,
mn,Pipestone,27117,44.0229951535905,-96.2586448321461,8071,208,2.6,455,5.6,454,5.6,452,5.6,247,118.8,6.39092495636998,1.38272828645769,7.18461538461539,3.31730769230769,
mn,Polk,27119,47.7738535490486,-96.401803344746,28259,1475,5.2,3663,13,3704,13.1,3745,13.3,2188,148.3,4.92698668818072,2.03347606072402,6.51706251706252,4.4,
mn,Pope,27121,45.586015064245,-95.4444785791081,13776,317,2.3,1005,7.3,1016,7.4,1028,7.5,688,217,6.25808823529412,1.51909117305459,7.22487562189055,1.7602523659306,
mn,Ramsey,27123,45.0170610652961,-93.0996074069975,151713,1441,0.9,7689,5.1,7752,5.1,7814,5.2,6248,433.6,5.08312001204638,1.3574644229565,6.156587332553,3.39555863983345,
mn,Red Lake,27125,47.8716944124423,-96.0953033903465,3650,38,1,335,9.2,339,9.3,343,9.4,297,781.6,6.19686800894855,1.63643835616438,7.12238805970149,3.68421052631579,
mn,Redwood,27127,44.4036612077272,-95.2538341807632,7582,274,3.6,971,12.8,976,12.9,982,13,697,254.4,6.33688524590164,1.85874439461883,7.06797116374871,3.54014598540146,
mn,Renville,27129,44.726814901193,-94.9471503058598,15770,228,1.4,1785,11.3,1800,11.4,1815,11.5,1557,682.9,6.13167858645351,1.77349397590361,7.00168067226891,3.28947368421053,
mn,Rice,27131,44.3542643030121,-93.2966783051187,27907,660,2.4,3110,11.1,3118,11.2,3127,11.2,2450,371.2,6.53217568947906,1.77629268642276,7.32025723472669,5.02121212121212,
mn,Rock,27133,43.6746303971906,-96.2532076470921,7700,326,4.2,493,6.4,491,6.4,489,6.4,167,51.2,6.62640901771337,1.45376623376623,7.47870182555781,2.8159509202454,
mn,Roseau,27135,48.7751394251237,-95.8108171585682,14121,1598,11.3,1087,7.7,1104,7.8,1122,7.9,-511,-32,4.98166127292341,1.52276750938319,6.16651333946642,2.49937421777222,
mn,St. Louis,27137,47.589862164336,-92.4614655334764,182551,4748,2.6,13605,7.5,13741,7.5,13877,7.6,8857,186.5,6.46255242660276,1.54936428724028,7.48107313487688,3.28727885425442,
mn,Scott,27139,44.6484737257406,-93.5358982367137,57526,810,1.4,3384,5.9,3427,6,3470,6,2574,317.8,5.47881969587256,1.43008378820012,6.70390070921986,3.07901234567901,
mn,Sherburne,27141,45.4439531225691,-93.7745948684984,41159,1039,2.5,3103,7.5,3140,7.6,3178,7.7,2064,198.7,5.9123654733143,1.54340484462693,7.02320335159523,3.16939364773821,
mn,Sibley,27143,44.5794783729395,-94.2321420774236,12299,228,1.9,1103,9,1110,9,1117,9.1,875,383.8,6.10258152173913,1.6107000569152,7.02357207615594,2.6140350877193,
mn,Stearns,27145,45.5521529593007,-94.6130114119058,68899,1815,2.6,4996,7.3,5112,7.4,5229,7.6,3181,175.3,5.62209675349673,1.5227942350397,6.81925540432346,3.45785123966942,
mn,Steele,27147,44.0223437461548,-93.226041109846,20102,624,3.1,1461,7.3,1470,7.3,1478,7.4,837,134.1,6.02272727272727,1.50572082379863,6.99931553730322,3.94551282051282,
mn,Stevens,27149,45.5861252837243,-96.0003022914686,7981,216,2.7,660,8.3,665,8.3,670,8.4,444,205.6,6.00343642611684,1.54729983711314,6.84090909090909,1.80092592592593,
mn,Swift,27151,45.2827089033039,-95.681439385762,5322,299,5.6,673,12.6,677,12.7,681,12.8,374,125.1,6.06938325991189,1.86490041337843,6.98959881129272,3.31772575250836,
mn,Todd,27153,46.0706237641735,-94.8975993634275,24530,1156,4.7,1200,4.9,1221,5,1242,5.1,44,3.8,6.08313539192399,1.34896045658378,7.11333333333333,2.1098615916955,
mn,Traverse,27155,45.7721844847858,-96.4716413552992,6057,513,8.5,924,15.3,927,15.3,930,15.4,411,80.1,5.77851851851852,2.06504870397887,6.86904761904762,3.57699805068226,
mn,Wabasha,27157,44.2842861599976,-92.2302602601448,15824,779,4.9,2045,12.9,2045,12.9,2045,12.9,1266,162.5,6.91375291375291,1.96195652173913,7.7638141809291,4.68806161745828,
mn,Wadena,27159,46.585761560619,-94.969407833635,10870,278,2.6,629,5.8,636,5.9,643,5.9,351,126.3,5.63664278403275,1.41674333026679,6.87599364069952,3.21223021582734,
mn,Waseca,27161,44.0221236545065,-93.5872832229241,12096,52,0.4,915,7.6,918,7.6,920,7.6,863,1659.6,5.80270067516879,1.52926587301587,6.87103825136612,1.94230769230769,
mn,Washington,27163,45.0387534150856,-92.8839692050994,103991,2003,1.9,6430,6.2,6474,6.2,6519,6.3,4427,221,5.50184535892231,1.46918483330288,6.78989113530327,3.93659510733899,
mn,Watonwan,27165,43.9784278928487,-94.6140606084197,7853,184,2.3,647,8.2,650,8.3,654,8.3,463,251.6,5.99765533411489,1.54284986629314,6.81143740340031,3.40760869565217,
mn,Wilkin,27167,46.3570765652641,-96.4683496087558,8140,1355,16.6,1085,13.3,1093,13.4,1101,13.5,-270,-19.9,5.3733410271206,1.93108108108108,6.63963133640553,2.70184501845018,
mn,Winona,27169,43.9868496601291,-91.7791294268601,24594,814,3.3,3190,13,3202,13,3214,13.1,2376,291.9,5.55227586206897,2.34195332194844,7.41222570532915,4.99140049140049,
mn,Wright,27171,45.1739317277,-93.9630531162167,67192,1594,2.4,5221,7.8,5246,7.8,5270,7.8,3627,227.5,6.05995807127883,1.53881414454102,7.02126029496265,2.75972396486826,
mn,Yellow Medicine,27173,44.7162497147753,-95.8683593995269,10484,359,3.4,1326,12.6,1330,12.7,1334,12.7,967,269.4,5.72475027746948,1.8120946203739,6.55429864253394,3.72980501392758,
il,Adams,17001,39.9879047530619,-91.1885033556268,38037,1295,3.4,2914,7.7,2908,7.6,2902,7.6,1619,125,6.55614406779661,1.55156820990089,7.37268359643102,4.6972972972973,
il,Alexander,17003,37.1915992038756,-89.3376425306566,8131,3724,45.8,2277,28,2318,28.5,2360,29,-1447,-38.9,5.97724230254351,2.82904931742713,6.78184222124284,3.90574650912997,
il,Bond,17005,38.8868296500801,-89.435544247996,14101,789,5.6,1191,8.4,1204,8.5,1217,8.6,402,51,7.2180774748924,1.61470817672506,7.85642317380353,4.80228136882129,
il,Boone,17007,42.3230767087258,-88.8233795851879,24092,658,2.7,1268,5.3,1288,5.3,1309,5.4,610,92.7,5.82998454404946,1.38913332226465,7.11277602523659,4.62006079027356,
il,Brown,17009,39.9617890080939,-90.7503811783699,5262,170,3.2,401,7.6,402,7.6,402,7.6,231,135.9,7.59414225941423,1.59901178259217,8.35910224438903,4.27647058823529,
il,Bureau,17011,41.404137581016,-89.5286733731161,26114,1296,5,2283,8.7,2298,8.8,2314,8.9,987,76.2,6.61784741144414,1.63161522554951,7.51029347349978,4.50848765432099,
il,Carroll,17015,42.0686857422545,-89.9344132558373,13796,520,3.8,1494,10.8,1507,10.9,1520,11,974,187.3,6.50995405819296,1.78240069585387,7.50803212851406,6.35,
il,Cass,17017,39.9735473485113,-90.2473729253748,11995,1482,12.4,1636,13.6,1652,13.8,1667,13.9,154,10.4,4.78905033731188,2.2174239266361,6.94621026894866,3.89271255060729,
il,Champaign,17019,40.1400890018261,-88.1991706677684,72657,1804,2.5,4668,6.4,4748,6.5,4827,6.6,2864,158.8,5.50790097445352,1.47115900739089,6.78984575835476,4.98170731707317,
il,Christian,17021,39.5458317535692,-89.2772543142233,23818,688,2.9,1777,7.5,1816,7.6,1856,7.8,1089,158.3,6.12011173184358,1.53871021916198,7.23072594259989,4.10610465116279,
il,Clark,17023,39.3335656406656,-87.7877259242755,14225,507,3.6,1207,8.5,1214,8.5,1222,8.6,700,138.1,7.42698191933241,1.64970123022847,8.1913835956918,5.72781065088757,
il,Clay,17025,38.7541714951939,-88.4902374226241,15242,694,4.6,1518,10,1529,10,1540,10.1,824,118.7,7.21108622620381,1.72779162839522,7.87747035573123,4.10086455331412,
il,Clinton,17027,38.6064632054457,-89.422475396773,26585,4136,15.6,1878,7.1,1921,7.2,1964,7.4,-2258,-54.6,6.39254559873117,1.51156667293587,7.3482428115016,2.91320116054159,
il,Coles,17029,39.5202868787247,-88.2217953468094,26938,733,2.7,1856,6.9,1883,7,1910,7.1,1123,153.2,6.31673306772908,1.49539683718168,7.30765086206897,4.95634379263302,
il,Cook,17031,41.8954289825467,-87.646140796235,1413062,25448,1.8,151215,10.7,156898,11.1,162582,11.5,125767,494.2,4.80111494111636,1.83188848047715,6.17128591740237,4.18288274127633,
il,Crawford,17033,39.0026837062213,-87.7595579396849,16953,1214,7.2,1628,9.6,1646,9.7,1665,9.8,414,34.1,7.0890625,1.68961245797204,7.74614910659273,5.04695222405272,
il,Cumberland,17035,39.2733388793488,-88.2401971622989,11487,590,5.1,1274,11.1,1285,11.2,1296,11.3,684,115.9,7.22021419009371,1.80900147993384,7.8563579277865,6.31016949152542,
il,DeKalb,17037,41.8935306495795,-88.7703149398998,42668,1194,2.8,3643,8.5,3700,8.7,3758,8.8,2449,205.1,5.74102904879438,1.58523952376488,6.755146856986,4.93718592964824,
il,De Witt,17039,40.1746293385165,-88.9040887042523,10772,410,3.8,838,7.8,846,7.9,853,7.9,428,104.4,6.20431034482759,1.56043445971036,7.25536992840095,3.90243902439024,
il,Douglas,17041,39.7694638843796,-88.2173550248877,14918,1476,9.9,2295,15.4,2314,15.5,2332,15.6,819,55.5,5.92537313432836,2.10604638691514,7.06492374727669,4.63279132791328,
il,DuPage,17043,41.8519557292363,-88.0855946907896,281869,5372,1.9,23001,8.2,23696,8.4,24391,8.7,17629,328.2,5.2232546000261,1.5740751909575,6.32442067736185,4.70048399106478,
il,Edgar,17045,39.678534631077,-87.7455709292679,17734,310,1.7,1824,10.3,1848,10.4,1873,10.6,1514,488.4,6.55804920155373,1.72617570768016,7.41063596491228,5.30322580645161,
il,Effingham,17049,39.0597867631268,-88.5898502337053,22937,375,1.6,1320,5.8,1335,5.8,1350,5.9,945,252,7.11654135338346,1.42560055805031,7.8530303030303,3.45066666666667,
